Substation Number,Substation Name,Substation Type,Easting,Northing,Latitude,Longitude,x_temp,y_temp,lat_temp,lon_temp
437640,Sawles Road,Primary Substation,201491.0,51749.0,50.33207,-4.790694,201484.938412514,51740.8725096953,50.33214504355099,-4.790613206363592
910033,Ruskington 33 11kv S Stn,Primary Substation,507341.0,350898.0,53.044549,-0.400293,507342.97349547944,350894.0651297723,53.04458474943241,-0.4003211023910856
840014,Madeley 33/11kv,Primary Substation,369417.0,305982.0,52.650669,-2.45351,369415.97012028605,305978.5187610469,52.65070034893602,-2.4534950895641447
790025,Hammerley Down 33/11kv,Primary Substation,371024.0,191978.0,51.625807,-2.420013,371021.97008184786,191971.42167033674,51.62586624637241,-2.4199842117299917
850024,Cheadle 33/11kv,Primary Substation,399788.0,342677.0,52.981413,-2.004621,399786.96902472444,342674.3750058051,52.98143659383238,-2.0046056350347543
850022,Congleton 33/11kv,Primary Substation,386476.0,362946.0,53.163438,-2.203748,386474.9946226123,362943.4267690628,53.16346115295634,-2.20373306017073
900037,Metheringham 33 11kv S Stn,Primary Substation,506518.0,360958.0,53.135118,-0.409248,506518.9999607364,360955.1348797271,53.13514394081523,-0.40926197650848256
900031,Ruston & Hornsby 33/6.6kv,Primary Substation,496743.0,370776.0,53.225204,-0.55234,496744.01183564577,370773.0897071086,53.22523033254809,-0.5523542556875602
900029,North Hykeham 33 11kv S Stn,Primary Substation,493661.0,367079.0,53.192534,-0.599573,493662.0231536429,367076.11767866695,53.19256007775663,-0.5995874518446946
910050,Stamford 11kv S Stn,Primary Substation,503483.0,307100.0,52.651724,-0.471716,503484.02886561316,307095.09927766887,52.65176823268153,-0.47172965439626696
910029,Crowland 33 11kv S Stn,Primary Substation,524210.0,311115.0,52.683462,-0.163956,524212.0149005604,311111.0609662637,52.68349785011782,-0.16398429233248324
910024,Donington 33 11kv S Stn,Primary Substation,521870.0,336880.0,52.915491,-0.188961,521871.96896657214,336876.0143592642,52.91552725285504,-0.18898875923778705
910022,Kirton 33 11kv S Stn,Primary Substation,530685.0,337819.0,52.921867,-0.057565,530686.9974400268,337816.0828134067,52.92189369033426,-0.05759350545964098
900006,Sleaford Road Boston 33 11kv S Stn,Primary Substation,532163.0,344103.0,52.97796,-0.033035,532164.9857299132,344099.98688073,52.97798755520118,-0.03306331275029421
670120,Ipsley 66/11kv,Primary Substation,405929.0,266445.0,52.29606,-1.914499,405928.01020880596,266440.3328575807,52.296101944236156,-1.9144843941135998
890031,Sutton Junction 33 11kv S Stn,Primary Substation,451527.0,358801.0,53.123882,-1.23147,451526.9643830233,358799.208089492,53.123898099277085,-1.2314691678004555
210140,Exebridge,Primary Substation,292893.0,125088.0,51.015097,-3.528323,292888.9290253604,125080.70577591867,51.015163321872734,-3.5282671329380366
550203,Pentrebach,Primary Substation,305630.0,204306.0,51.729441,-3.367855,305626.9779284672,204299.67702125316,51.72949833926385,-3.367812961200205
520329,Portable Swbd No3,Primary Substation,267753.0,198281.0,51.667638,-3.913733,,,,
560103,Commercial St Neath,Primary Substation,275075.0,197549.0,51.662746,-3.807654,275070.97174200177,197543.75211861602,51.66279405308004,-3.807597656625286
520129,Gethin Street Swansea,Primary Substation,265180.0,192856.0,51.618277,-3.948823,265175.94390980736,192849.75801493844,51.618334058721295,-3.9487668427213185
520274,Swansea Trading Estate,Primary Substation,262477.0,196044.0,51.646278,-3.989094,262472.95894722326,196038.7125920597,51.64632649624758,-3.9890377018463647
590153,Llandovery,Primary Substation,276125.0,233752.0,51.988317,-3.805447,276120.93376360054,233746.66358793073,51.9883658576913,-3.8053897342166243
520142,Hendy,Primary Substation,258195.0,203598.0,51.71309,-4.054011,258190.92325666666,203592.77441411436,51.71313798058829,-4.0539541498245555
590161,Llanllwni,Primary Substation,246850.0,241152.0,52.047503,-4.234771,246845.9712908331,241147.7972771884,52.04754186598513,-4.234714174051432
210500,Staplegrove,Primary Substation,321524.0,125723.0,51.02544,-3.120389,321520.9318228959,125716.56704518237,51.025498249796165,-3.120346644501371
780000,Stadco 33kv S Stn,Primary Substation,382398.0,218837.0,51.867778,-2.257075,,,,
670142,Pattingham 33/11kv,Primary Substation,382559.0,299163.0,52.589952,-2.258893,382558.00513872434,299159.3881619599,52.589984497752255,-2.2588784946723384
778960,Drayton Farm North 66/11kv,Primary Substation,415643.0,255393.0,52.196511,-1.772572,415641.9552372022,255388.31709137704,52.19655306737146,-1.7725564883064724
520100,Clase,Primary Substation,265625.0,198230.0,51.666683,-3.944465,265620.9557876212,198224.69084686507,51.66673167161836,-3.944408591573472
880027,Arnold 33/11kv,Primary Substation,458867.0,345956.0,53.007664,-1.124144,458866.960608684,345953.2275762822,53.00768891112092,-1.124142895903929
930081,Langdale Drive 33 11kv S Stn,Primary Substation,438327.0,292602.0,52.529903,-1.436458,438327.0136945274,292597.27267287514,52.52994549323234,-1.4364576457462521
930066,Brownsover 33/11kv,Primary Substation,450786.0,276828.0,52.387099,-1.255213,450785.95751374605,276824.21342381206,52.387133030983584,-1.2552117906843732
930049,Ryton 33/11kv,Primary Substation,437661.0,274545.0,52.367624,-1.448306,437661.00190825755,274540.2357338093,52.367666825597304,-1.4483054824085706
930042,Dillotford Ave 33 11kv S Stn,Primary Substation,433669.0,276810.0,52.388254,-1.506706,433669.01889479323,276806.2540569686,52.38828767240479,-1.5067058901453454
890099,Sherwood Park 33/11kv,Primary Substation,449609.0,352876.0,53.070799,-1.261041,449609.0015257495,352873.20843407384,53.070824088273035,-1.2610405806230738
890093,Bolsover 11kv S Stn,Primary Substation,445120.0,371166.0,53.235593,-1.325463,445120.0016534205,371163.2974169342,53.235617288273005,-1.3254626302403911
890078,Walton 33 11kv S Stn,Primary Substation,435744.0,368958.0,53.2165,-1.4662,435742.29554477724,368959.9212687387,53.216482613326775,-1.4661746780681724
890054,Bilsthorpe 33 11kv S Stn,Primary Substation,466117.0,362078.0,53.151719,-1.012788,466118.02357065515,362075.19673324516,53.151744318191625,-1.0128027123256496
890048,Thoresby 33 11kv S Stn,Primary Substation,464174.0,367278.0,53.198692,-1.040796,464174.9990431016,367275.2056163645,53.19871723192642,-1.0408103792806316
890037,Crown Farm 33 11kv S Stn,Primary Substation,456477.0,361493.0,53.147578,-1.157035,456477.0039925421,361491.2708836925,53.14759353839996,-1.157034742571233
890030,Skegby Lane 33 11kv S Stn,Primary Substation,452441.0,360372.0,53.137896,-1.217557,452440.9727734747,360368.26756822347,53.137929541589116,-1.2175559708581847
880011,Hucknall 33 11kv S Stn,Primary Substation,453823.0,349634.0,53.041253,-1.198695,453822.9643320609,349631.2903352024,53.04127734813477,-1.198694003818387
880023,East Leake 33 11kv S Stn,Primary Substation,455227.0,327668.0,52.843663,-1.18149,455227.01699363533,327664.2334179997,52.843696854080854,-1.1814896031020163
930087,Tournament Fields 33/11kv S Stn,Primary Substation,426638.0,263079.0,52.26519,-1.611098,426637.9526248242,263074.3363854868,52.265231919979485,-1.6110969270959572
930051,Banbury Road 33 11kv S Stn,Primary Substation,429798.0,262284.0,52.257881,-1.564866,429797.96828606154,262279.2863836404,52.257923369873545,-1.5648651087342902
880036,Cotgrave 33 11kv S Stn,Primary Substation,465254.0,336705.0,52.923778,-1.030817,465255.0047815674,336702.25937658804,52.92380275110324,-1.030831380400008
880035,Colwick 33 11kv S Stn,Primary Substation,461880.0,340736.0,52.960398,-1.080229,461880.9594847971,340732.1901697371,52.96043235006105,-1.0802425424718627
920009,Pytchley Road 33 11kv S Stn,Primary Substation,487186.0,275974.0,52.374836,-0.720699,487187.0032061514,275969.15753432905,52.3748796790036,-0.7207124622891518
910039,Melton Mowbray 11kv S Stn,Primary Substation,476365.0,319131.0,52.764357,-0.869689,476366.011960175,319127.178900881,52.7643914824093,-0.8697030921884706
113760,Bradley Stoke,Primary Substation,361269.0,183308.0,51.547268,-2.559968,361266.9538988292,183301.53650353284,51.547326249321,-2.5599391968639975
910036,Grantham South 11kv S Stn,Primary Substation,491717.0,334957.0,52.904198,-0.637793,491718.00484532025,334953.12161501986,52.90423302190355,-0.6378068291362503
310061,Hill Barton Primary,Primary Substation,300458.0,91251.0,50.712273,-3.411298,300453.94750069885,91243.65895697763,50.712339685159684,-3.41124259241834
890060,Misterton 33 11kv S Stn,Primary Substation,476903.0,393676.0,53.43425,-0.843897,476903.9900202686,393674.1316010533,53.4342669318393,-0.8439114297831161
890050,Checkerhouse 11kv S Stn,Primary Substation,466994.0,379366.0,53.306985,-0.99605,466994.9647401416,379363.2530168287,53.307009806679766,-0.9960638836250614
890044,Manton 33 11kv S Stn,Primary Substation,460362.0,377918.0,53.294775,-1.095838,460363.000187025,377916.16785746923,53.29479157712585,-1.0958526430929239
939305,Jaguar Land Rover,Primary Substation,435797.0,255194.0,52.193786,-1.477729,435797.0011457821,255189.3213005009,52.193828057625566,-1.4777285118663546
930073,Wood End 33/11 Kv,Primary Substation,425177.0,298351.0,52.582358,-1.629861,425176.9545661626,298347.3622330907,52.58239069629162,-1.6298600419060674
930071,Tamworth Grid 11kv S Stn,Primary Substation,423333.0,301263.0,52.608617,-1.65687,423332.9986745974,301259.29123286274,52.6086503365659,-1.6568697077256724
530099,Chepstow,Primary Substation,353577.0,193962.0,51.642482,-2.672301,353574.9670174561,193956.54770870577,51.64253118323768,-2.6722723368500376
920062,Raunds 11kv,Primary Substation,498986.0,272866.0,52.344901,-0.548337,498986.9644592417,272861.1378657695,52.34494486726749,-0.5483497089369715
920060,Little Irchester 33 11kv S Stn,Primary Substation,490162.0,266312.0,52.287515,-0.679584,490162.999878693,266307.17147911823,52.28755855792465,-0.6795973517111942
920056,Rushden 33 11kv S Stn,Primary Substation,495765.0,267279.0,52.295259,-0.597193,495765.96305685083,267274.1325079054,52.29530291047404,-0.5972057220203858
920051,Oakley 33/11kv,Primary Substation,486335.0,285911.0,52.464283,-0.730634,486336.02430062974,285906.1766325572,52.4643265092118,-0.7306478132290104
940054,Northampton West 11kv S Stn,Primary Substation,474306.0,261394.0,52.245679,-0.913087,474306.0093845441,261389.24352146505,52.24572175178665,-0.9130860803197428
946045,Northampton East 11kv S Stn,Primary Substation,479492.0,261205.0,52.243256,-0.837176,479492.9919525021,261200.18363758712,52.243299430738446,-0.8371893806982775
930034,University Of Warwick 33 11kv S Stn,Primary Substation,429733.0,276309.0,52.383969,-1.564583,429732.9810837705,276304.34793997713,52.38401081637321,-1.5645822986514066
550060,Abertillery,Primary Substation,321668.0,203838.0,51.727716,-3.135585,321664.9845904549,203832.59921197803,51.72776496702799,-3.135542556097838
530294,Newhouse Primary S/S,Primary Substation,353832.0,191672.0,51.621905,-2.668313,353829.9865347743,191665.4948065143,51.6219636470726,-2.668284766309839
850019,Tean 33/11kv,Primary Substation,400747.0,340131.0,52.958526,-1.990342,400746.0111046085,340128.35272554035,52.95854979239113,-1.9903272617336063
330037,Plymstock South,Primary Substation,250684.0,52508.0,50.353415,-4.100342,250678.96372699563,52498.792944090615,50.35349901830038,-4.1002748989584
770001,Wribbenhall 33/11kv,Primary Substation,379162.0,276422.0,52.385386,-2.307605,379160.9638872175,276417.46831689094,52.38542677546687,-2.3075900485986223
540241,Mill St Tonyrefail,Primary Substation,301013.0,188011.0,51.582177,-3.430065,301009.9777109579,188004.59694808943,51.5822350809308,-3.4300231920487603
520162,Llanrhidian,Primary Substation,249403.0,192034.0,51.606898,-4.176188,249398.97666713415,192028.78812889085,51.60694589985976,-4.176132175005048
550090,Brynmawr,Primary Substation,319103.0,211541.0,51.796595,-3.174511,319099.9436894611,211535.62036827597,51.79664379646234,-3.174467937127432
600273,Tenby,Primary Substation,212716.0,200498.0,51.671905,-4.709947,212710.94698958032,200492.9107474154,51.67195238799705,-4.709876732034189
690060,Willesley 33 11kv S Stn,Primary Substation,433871.0,315158.0,52.732971,-1.499835,433870.99362790113,315154.2840086987,52.73300439988975,-1.4998345110727973
600124,Fishguard,Primary Substation,196014.0,235308.0,51.978653,-4.971672,196008.915154538,235303.87706264935,51.97869188131666,-4.971600510380198
560024,Llynfi,Primary Substation,288426.0,187110.0,51.571735,-3.611382,288421.9551484264,187104.70773772296,51.57178336247146,-3.6113253324582804
510190,Northcote St.,Primary Substation,318795.0,177512.0,51.490652,-3.171066,318791.97619778296,177506.64823671302,51.49070054046328,-3.1710236787823622
930102,Moira 33 11kv S Stn,Primary Substation,430269.0,316007.0,52.740816,-1.553098,430268.99197104445,316003.31254644645,52.740849143526255,-1.553097529778144
510238,Taff Bank,Primary Substation,318092.0,175364.0,51.471231,-3.18069,318088.9880658059,175357.5542150989,51.47128937698982,-3.1806481314747015
340018,Higher Woodway,Primary Substation,294133.0,74611.0,50.561556,-3.496093,294128.93838147976,74602.63500877397,50.56163193123015,-3.49603804856376
510064,Ashgrove,Primary Substation,315675.0,180574.0,51.517711,-3.216727,315671.966736962,180567.61556599074,51.517768841092135,-3.2166848141351267
340026,Upton Valley,Primary Substation,291355.0,64412.0,50.469359,-3.532327,291350.93856816215,64403.63671072648,50.46943493260884,-3.532272212955267
437210,Wadebridge,Primary Substation,200691.0,72974.0,50.52245,-4.813203,200684.96083234574,72965.92818174206,50.52252455426336,-4.813122216062539
310018,Bridge Mills,Primary Substation,297657.0,101271.0,50.801854,-3.453745,297652.98526442715,101262.65486785214,50.80192972450591,-3.453690365830951
310012,Newton St Cyres,Primary Substation,289465.0,98477.0,50.775241,-3.56911,289460.9500039619,98469.68466377,50.77530752654114,-3.569054773871239
850003,Hill Chorlton 33/11kv,Primary Substation,380121.0,339463.0,52.95215,-2.29734,380119.99851672637,339460.46410368726,52.95217282939466,-2.2973252385683955
880037,Caythorpe 33 11kv S Stn,Primary Substation,467767.0,345987.0,53.006892,-0.991505,467767.9758673605,345984.21858572646,53.00691711858082,-0.991518945429783
182982,Westwick,Primary Substation,337683.0,161598.0,51.349969,-2.896252,337679.93967208575,161591.5615297541,51.350027217162506,-2.8962091806477
210160,Bath Road Primary,Primary Substation,331438.0,138546.0,51.141999,-2.981488,331434.9967385374,138539.57767006272,51.14205709660014,-2.9814462903660623
210100,Millfield,Primary Substation,349664.0,135958.0,51.120626,-2.720605,349661.9390705083,135951.56421062723,51.1206840429226,-2.7205764456999773
182570,Churchill Gate 33/11,Primary Substation,344812.0,160183.0,51.337976,-2.793676,344808.9798968878,160175.49949417348,51.3380437249731,-2.793633803550907
181230,Chew Stoke,Primary Substation,355702.0,163884.0,51.372216,-2.637805,355699.9876988754,163877.45384258032,51.37227500985404,-2.637776900030126
180471,Bournville,Primary Substation,332832.0,159143.0,51.327344,-2.965434,332828.95744700695,159136.58497341754,51.32740202919201,-2.965391540016009
180006,Congresbury,Primary Substation,344229.0,164382.0,51.375681,-2.80269,344226.9732153502,164375.56090612564,51.37573908721532,-2.802661885621126
260570,Georgeham,Primary Substation,247837.0,141392.0,51.151436,-4.177092,247831.95903681152,141384.82380191286,51.15150181803415,-4.177023005350723
260430,Heddon Cross,Primary Substation,264860.0,128192.0,51.037084,-3.928895,264855.94078656926,128184.75105289472,51.037150097253885,-3.928839835697451
260250,Barnstaple Quay,Primary Substation,255642.0,133227.0,51.080096,-4.062291,255637.93670498204,133220.79174636054,51.08015280722854,-4.06223550410773
437550,Polzeath,Primary Substation,197093.0,78420.0,50.570127,-4.866862,197086.96013125445,78411.89095753146,50.57020192553989,-4.866781234277579
340035,Laywell Brixham,Primary Substation,291785.0,54960.0,50.384466,-3.52354,291780.95418899925,54951.666905588994,50.3845416544018,-3.523485504676773
530214,Ringland Newport,Primary Substation,334713.0,187995.0,51.586961,-2.943778,334709.9462343696,187989.5852843696,51.58701002878157,-2.9437349268963704
510152,Llandough,Primary Substation,316728.0,172635.0,51.4465,-3.19968,316724.9761176183,172628.6514265603,51.44655751155537,-3.1996379831372836
510144,Highmead,Primary Substation,313653.0,176068.0,51.476908,-3.244757,313649.9488864994,176062.60105484218,51.47695699483866,-3.2447143884102245
340025,Lawes Bridge,Primary Substation,290023.0,66151.0,50.484744,-3.551601,290018.92397242604,66142.68608034297,50.48481950030104,-3.551546006622667
417080,Penzance Heamoor,Primary Substation,146221.0,31837.0,50.132127,-5.552568,146213.89055759725,31828.998440678028,50.132201859554236,-5.552474036423507
945675,Maxwell House Data Centre 33/11kv,Primary Substation,486780.0,234530.0,52.002384,-0.737258,486781.0126802586,234524.1156904567,52.002437045000505,-0.7372712472818955
939062,Wood Lane 33 11kv S Stn,Primary Substation,436854.0,295093.0,52.552406,-1.457895,436853.9755342387,295089.26471754274,52.55243957270028,-1.457894213188823
850015,Knypersley 33/11kv,Primary Substation,388144.0,355739.0,53.098695,-2.178531,388142.98578606657,355736.4311534872,53.09871811076923,-2.1785159368320057
930050,Kenilworth 33 11kv S Stn,Primary Substation,428399.0,271087.0,52.337094,-1.584622,428398.9772496846,271082.3208156965,52.33713606047253,-1.5846212600233807
930054,Wise Street 33 11kv S Stn,Primary Substation,431967.0,265136.0,52.283399,-1.532821,431966.9645997344,265131.27391771553,52.28344148125106,-1.532820022275109
160739,Whatley Quarry,Primary Substation,372991.0,147843.0,51.229072,-2.388219,372988.9537999382,147836.5021125435,51.22913051931075,-2.3881901769172638
210040,Priorswood,Primary Substation,323556.0,125744.0,51.025894,-3.091425,323552.9411567545,125736.56211012049,51.02596127320814,-3.0913829529062054
890056,Farnsfield 33 11kv S Stn,Primary Substation,465485.0,356859.0,53.10489,-1.023301,465486.00379954494,356856.1601766475,53.10491564314132,-1.0233154001895282
735832,I54 Business Park 33/11kv,Primary Substation,390491.0,303651.0,52.630496,-2.141941,390489.96736771584,303647.36272746715,52.63052871262001,-2.1419258373133636
795870,Javelin Park Efw,Primary Substation,379922.0,210459.0,51.792378,-2.292546,379919.9520918312,210454.44260619004,51.79241904460056,-2.2925165613130454
870031,Hatton 33 11kv S Stn,Primary Substation,421533.0,329643.0,52.863811,-1.681599,421532.9696841282,329639.29894899693,52.86384426491363,-1.6815982939393963
880019,Bulwell 33 11kv S Stn,Primary Substation,453866.0,345296.0,53.002257,-1.198776,453865.98182169365,345293.21862417046,53.002281994578716,-1.1987752536612672
510199,Penarth,Primary Substation,317596.0,170881.0,51.430859,-3.186784,317592.9705135057,170874.6131031384,51.43091685241403,-3.1867419092182945
610077,Brecon,Primary Substation,304588.0,228139.0,51.943491,-3.389519,304584.93536646385,228133.58768203668,51.94354016858093,-3.3894759222195865
840021,Harlescott 33/11kv,Primary Substation,350893.0,315919.0,52.738627,-2.728802,350891.00339529535,315915.5214781751,52.73865844605105,-2.7287729405086503
670097,Evesham 66/11kv,Primary Substation,404688.0,245749.0,52.109998,-1.932976,404686.95669671596,245743.34182743315,52.11004885715329,-1.932960677890164
890047,Rufford 33 11kv S Stn,Primary Substation,459660.0,360456.0,53.137902,-1.109643,459660.01643081615,360453.2293010652,53.13792690124199,-1.1096427179328472
670094,Long Marston 66/11kv,Primary Substation,415008.0,244938.0,52.102534,-1.78232,415006.98552984727,244933.32895019837,52.10257596349364,-1.7823049731710794
330044,Tamar Pumping Stn,Primary Substation,243643.0,72380.0,50.530174,-4.207537,243637.97084357767,72371.84954523938,50.53024858184561,-4.207469507455001
770005,Kinver 33/11kv,Primary Substation,385519.0,282568.0,52.440844,-2.214473,385517.9682687653,282563.37106231117,52.4408856376543,-2.214458012668906
939800,Birch Coppice 33 11kv S Stn,Primary Substation,425556.0,299428.0,52.592013,-1.624185,425555.95627695404,299423.3389369034,52.59205489528906,-1.6241839840367054
510086,Broad St.Barry,Primary Substation,311605.0,167975.0,51.403832,-3.272215,311601.94231795147,167968.64500742446,51.403889599991096,-3.272172628706135
920050,Hazelwood 33/11kv,Primary Substation,487488.0,288285.0,52.485436,-0.713046,487488.9669632551,288280.1164786541,52.48548004252569,-0.7130589421821656
745828,Rock Farm Ess,Primary Substation,353169.0,274729.0,52.368565,-2.689266,353166.9836592809,274725.5493144443,52.36859618872326,-2.6892368595371887
930103,Hinckley 11kv S Stn,Primary Substation,441136.0,292531.0,52.52907,-1.395062,441136.0155178059,292527.3316228565,52.5291029738259,-1.395061763394656
940057,Abington 33/11kv,Primary Substation,476802.0,261673.0,52.247844,-0.876459,476802.9776445563,261668.181242553,52.24788744601113,-0.876472210387195
756542,Larport Farm Bess,Primary Substation,357491.0,239794.0,52.05484,-2.621393,357488.97973006876,239788.50498995424,52.05488955181948,-2.621364212450401
250320,Penn Cross,Primary Substation,334710.0,94407.0,50.745513,-2.926796,334706.9721397677,94399.5244015925,50.74558055238696,-2.926754407366248
310026,Pinhoe,Primary Substation,295808.0,94250.0,50.738417,-3.477984,295803.9679293277,94242.6392004705,50.738483889962716,-3.47792895275255
917678,Raf Cranwell High G Facility,Primary Substation,502172.0,348663.0,53.025486,-0.478086,502173.01845469465,348660.06384764676,53.025512574953375,-0.4781002371069232
920052,Earlstrees 33 11kv S Stn,Primary Substation,488533.0,291147.0,52.511,-0.696901,488533.95893699594,291143.2069467356,52.51103424209597,-0.6969141046984554
920048,Desborough 33 11kv S Stn,Primary Substation,480637.0,283718.0,52.445451,-0.815013,480637.99215683737,283714.16576840845,52.44548560474108,-0.8150266567253205
920046,Farndon Road 33 11kv S Stn,Primary Substation,472544.0,286460.0,52.471221,-0.933465,472545.01809903875,286455.17154913803,52.471264531338726,-0.9334789233968671
920045,Field Street 33 11kv S Stn,Primary Substation,486591.0,279119.0,52.403206,-0.728625,486591.9885559777,279115.1431367325,52.40324081725049,-0.7286385176238412
940061,Northampton 11kv S Stn,Primary Substation,476515.0,259568.0,52.228963,-0.881138,476515.96137026884,259563.1932344468,52.229006335554566,-0.881150974129215
940059,Campbell Street 33/11kv,Primary Substation,475431.0,261151.0,52.243341,-0.896653,475431.9666341682,261146.151585726,52.243384708949336,-0.8966660610530077
940056,Chapel Brampton 33 11kv S Stn,Primary Substation,473269.0,266318.0,52.290078,-0.927205,473269.01149974647,266313.2204809477,52.290120959067714,-0.9272041183652341
114391,Emersons Green,Primary Substation,367243.0,177792.0,51.498052,-2.473305,367240.9486044714,177785.46366916824,51.49811088386761,-2.4732760472769852
210020,Trull,Primary Substation,321398.0,123090.0,51.001742,-3.121613,321394.9787676882,123082.58749846119,51.001809050508726,-3.121571548466929
181817,Wedmore,Primary Substation,343743.0,148132.0,51.229522,-2.807118,343740.00213975867,148124.5400282769,51.229589363809566,-2.807076233016303
210460,Shapwick,Primary Substation,341568.0,137574.0,51.134385,-2.836544,341564.9789786347,137567.5315277468,51.13444346245233,-2.8365018682089813
160811,Dinder,Primary Substation,359172.0,145524.0,51.207392,-2.585854,359169.8606160165,145516.9783927747,51.20745528290703,-2.58582416728643
940055,Ellesmere Avenue 33 11kv S Stn,Primary Substation,473066.0,260989.0,52.242204,-0.931333,473065.99734606687,260984.20868164493,52.242247063615636,-0.93133191418903
940048,Welton 33 11kv S Stn,Primary Substation,459458.0,267822.0,52.305263,-1.129399,459457.9736064705,267817.23168996145,52.305305856402555,-1.1293977599670724
940046,Wavendon Gate 33 11kv S Stn,Primary Substation,490112.0,237003.0,52.024082,-0.688084,490113.0001170673,236997.11650327715,52.02413504066075,-0.6880970120996848
920053,Corby No2 11kv S Stn,Primary Substation,490498.0,289084.0,52.492127,-0.668516,490498.96628821944,289079.1430215196,52.492170808405774,-0.6685288966869415
940045,Olney 33 11kv S Stn,Primary Substation,488264.0,251409.0,52.153873,-0.711285,488264.9896043051,251404.11827797478,52.15391703167624,-0.7112981811362257
920054,Burton Latimer 33 11kv S Stn,Primary Substation,488941.0,274790.0,52.363913,-0.69524,488941.99149675097,274785.1897911266,52.36395638997281,-0.6952532706051081
920058,Cannon Street 33 11kv S Stn,Primary Substation,489474.0,268274.0,52.305252,-0.689147,489475.02399965917,268268.11127915554,52.305305089691466,-0.6891604384065407
946268,Tattenhoe Primary,Primary Substation,482750.0,234249.0,52.000473,-0.796017,482751.015351325,234243.1559769268,52.00052567709938,-0.7960303649766807
560322,Llandarcy,Primary Substation,272014.0,196181.0,51.649754,-3.851385,272009.9392587849,196174.7457053493,51.64981112509979,-3.8513286185625173
210180,Periton,Primary Substation,295504.0,145632.0,51.200257,-3.497071,295499.9633767767,145625.6949672446,51.200314409295224,-3.4970150728394396
160390,Twerton,Primary Substation,372500.0,164800.0,51.381518,-2.396563,372497.9793265789,164793.48499920842,51.38157667277259,-2.3965344610526524
870053,Gresley 11kv S Stn,Primary Substation,427804.0,317948.0,52.758396,-1.589444,427804.0153379323,317944.29900423414,52.75842926656978,-1.589443902212801
790029,Rotol 33/11kv,Primary Substation,387815.0,222161.0,51.897801,-2.178506,387814.01067370875,222154.4758008498,51.897859675353374,-2.178491843289416
670143,Dymock 66/11kv,Primary Substation,369234.0,230325.0,51.970498,-2.449286,369231.984957791,230320.52325634542,51.97053835571926,-2.449257060067977
930107,Magna Park 33 11kv S Stn,Primary Substation,451031.0,283736.0,52.449175,-1.250561,451031.00789907685,283732.29744003946,52.449208280065434,-1.2505605390165015
670139,Bustleholm 11kv Switch House,Primary Substation,402679.0,295110.0,52.553794,-1.961934,402678.0120480014,295106.41431524087,52.55382622634006,-1.9619193890926065
730000,Galton Junction B R  25kv S Stn,Primary Substation,401515.0,289286.0,52.5014,-1.9791,401515.7856775885,289277.8374970655,52.50147337850795,-1.9791115276007596
920065,Park Farm 33 11kv S Stn,Primary Substation,486098.0,267552.0,52.299311,-0.738832,486098.9930415057,267547.1616768636,52.299354638565724,-0.7388453105990224
940068,Crick 33 11kv S Stn,Primary Substation,456992.0,273007.0,52.352142,-1.164684,456991.9897126675,273003.22084519675,52.35217596656555,-1.1646831962767308
920059,Thrapston 33 11kv S Stn,Primary Substation,498689.0,278099.0,52.391994,-0.551157,498689.97377181693,278095.1649815206,52.39202863754562,-0.5511701634103373
920057,Sharnbrook 33 11kv S Stn,Primary Substation,498090.0,259869.0,52.228252,-0.565263,498091.0069657671,259864.11404864275,52.22829608769251,-0.5652763098399237
940044,Victoria Road 33 11kv S Stn,Primary Substation,488072.0,234048.0,51.997849,-0.718566,488073.01087912824,234042.18387099844,51.99790143386216,-0.7185792151615669
940039,Childs Way 33 11kv S Stn,Primary Substation,484840.0,237965.0,52.03356,-0.764661,484841.01204546716,237959.20399766276,52.03361224807912,-0.7646743009771205
900026,Hawton 11kv S Stn,Primary Substation,480184.0,350975.0,53.049998,-0.805257,480185.0138220561,350971.17114327976,53.0500325589064,-0.8052711559880025
900033,Waddington 33 11kv S Stn,Primary Substation,497965.0,365214.0,53.17501,-0.535747,497965.9654221587,365212.1270520013,53.17502700444926,-0.5357608526445745
900024,Newark Junction 33 11kv S Stn,Primary Substation,480575.0,354130.0,53.078294,-0.798637,480576.00810793595,354126.21815467445,53.0783281362243,-0.7986510860712237
910056,Empingham 33/11kv,Primary Substation,495072.0,308080.0,52.662078,-0.595724,495073.0281547888,308076.1080041219,52.66211315364634,-0.5957380629939604
910054,Tinwell Road Ketton 33 11kv S Stn,Primary Substation,498686.0,305443.0,52.637735,-0.543096,498686.9721769434,305439.11874351144,52.637770052974616,-0.5431091894944736
910053,Wittering 33 11kv S Stn,Primary Substation,505769.0,302685.0,52.611609,-0.43935,505770.0134283536,302680.1369437885,52.61165289483691,-0.43936339416346093
910052,Exton 33 11kv S Stn,Primary Substation,491180.0,310667.0,52.685996,-0.652537,491181.01131229167,310663.1680715514,52.68603060446235,-0.6525508836253661
910051,Ketton Cement 33/11kv,Primary Substation,498565.0,305936.0,52.642188,-0.544736,498565.99876070535,305932.17910090496,52.64222251519183,-0.5447496028244576
910045,Market Deeping 33 11kv S Stn,Primary Substation,514947.0,310300.0,52.678181,-0.301201,514948.9769963427,310296.0502376004,52.67821690661977,-0.30122883810242257
910044,Holwell 33 11kv S Stn,Primary Substation,472965.0,320290.0,52.775243,-0.91981,472965.9819956897,320286.15542641096,52.775277683565406,-0.9198236859775174
910040,Skillington 33 11kv S Stn,Primary Substation,489297.0,324650.0,52.811976,-0.676583,489298.02641648974,324646.09834780754,52.81201123051985,-0.6765971460792148
910038,Bottesford 33 11kv S Stn,Primary Substation,479770.0,337678.0,52.930565,-0.814707,479771.02407221054,337675.1301307241,52.930590940953294,-0.8147215139282077
910035,Billingborough 33 11kv S Stn,Primary Substation,510087.0,334297.0,52.894823,-0.365005,510087.97481703945,334293.097150056,52.894858265556906,-0.36501815102318547
910032,Bourne 11kv S Stn,Primary Substation,509105.0,319918.0,52.765816,-0.384397,509105.9663868791,319914.14098773635,52.765850868234466,-0.3844100198189844
910028,Spalding Clay Lake 11kv S Stn,Primary Substation,525368.0,321165.0,52.773502,-0.143002,525370.0092883101,321162.0150771863,52.77352928126639,-0.1430306132271781
900027,South Carlton 33 11kv S Stn,Primary Substation,495059.0,376047.0,53.272873,-0.575984,495060.0168282701,376044.1055961149,53.27289918787124,-0.5759983651676861
940042,Bletchley 11kv S Stn,Primary Substation,486282.0,235575.0,52.011855,-0.744248,486282.99147645925,235569.16866145475,52.011907564786796,-0.7442609626314052
900030,Rookery Lane 33/11kv,Primary Substation,496175.0,369094.0,53.210193,-0.561352,496175.9821580993,369091.1393383335,53.210218880175475,-0.5613658271432743
670129,Ledbury 66/11kv,Primary Substation,370829.0,238786.0,52.046643,-2.426792,370827.01025966194,238780.48039017664,52.0466927243053,-2.4267634492888654
940035,Winslow 33 11kv S Stn,Primary Substation,476803.0,228739.0,51.951806,-0.883872,476802.95789653156,228734.1672108436,51.951849432165965,-0.8838702966919847
940034,Kiln Farm 33 11kv S Stn,Primary Substation,480638.0,239648.0,52.049314,-0.825504,480639.0148102427,239642.1923820019,52.04936634634355,-0.8255174140290902
940033,Wicken 33 11kv S Stn,Primary Substation,475213.0,239422.0,52.048044,-0.904662,475212.97592601884,239416.16455859196,52.04809644719374,-0.9046603542820786
940031,Towcester 33 11kv S Stn,Primary Substation,469948.0,247840.0,52.124412,-0.979698,469947.9786412949,247835.1770585046,52.124455346965604,-0.9796966857158576
940027,Woodford Halse 33 11kv S Stn,Primary Substation,454268.0,253121.0,52.173645,-1.207864,454267.976433919,253116.21129416436,52.173688041998545,-1.2078628786866672
670133,Newent 66/11kv,Primary Substation,373957.0,225672.0,51.928898,-2.380183,373954.97740673437,225666.49617163517,51.928947573525456,-2.3801539927612994
790023,Mead Lane 33/11kv,Primary Substation,362961.0,201899.0,51.714531,-2.537541,362958.9970072461,201892.51852078468,51.71458940150285,-2.5375126893396454
790022,Netherhills 33/11kv,Primary Substation,376599.0,207131.0,51.762318,-2.3405,376596.96889402537,207125.49555768905,51.762367570784036,-2.34047093188743
850029,Simplex 33/11kv,Primary Substation,394873.0,340997.0,52.966286,-2.077798,394871.94944679097,340994.41860849166,52.96630921154675,-2.0777823881102475
850028,Leek 33/11kv,Primary Substation,397918.0,356110.0,53.102159,-2.032564,397916.99297739647,356107.3566685547,53.1021827618049,-2.0325489652118307
850026,Cauldon 33/11kv,Primary Substation,407731.0,349331.0,53.041173,-1.886161,407729.9849934698,349328.41147153964,53.04119625071927,-1.8861457880925163
790021,Dursley 33/11kv,Primary Substation,376059.0,199177.0,51.690772,-2.347774,376057.0044569984,199170.48801924166,51.69083063028797,-2.347745569282773
680062,Stafford South 11kv,Primary Substation,392881.0,321876.0,52.794369,-2.107031,392879.9701233617,321872.4361829077,52.794401047068376,-2.1070157936172493
900017,Ingoldmells 33 11kv S Stn,Primary Substation,555895.0,367324.0,53.180153,0.331386,555897.9896927944,367321.020042595,53.18018063606595,0.33134276851060507
850018,Kingsley Holt 33/11kv,Primary Substation,402157.0,345760.0,53.009123,-1.969317,402156.0140086399,345757.3943690749,53.00914641529297,-1.9693022764600452
900035,Fiskerton 33 11kv S Stn,Primary Substation,505848.0,372430.0,53.238341,-0.415448,505850.00067922357,372428.1151933911,53.23835833077988,-0.41547732595679626
736180,Wednesbury Power,Primary Substation,398704.0,294040.0,52.544179,-2.020556,398703.0037892317,294036.40742412995,52.54421129557653,-2.0205413135162353
114389,Cotham Primary,Primary Substation,358402.0,173661.0,51.460327,-2.60017,358399.95377986133,173654.47973558807,51.46038577004345,-2.600141307058575
510230,St Mellons,Primary Substation,323308.0,181792.0,51.529759,-3.107009,323304.9869068468,181786.61458913854,51.52980781870914,-3.106966736353793
260230,Ilfracombe,Primary Substation,252647.0,146666.0,51.200096,-4.110519,252642.9437645425,146659.7939934283,51.20015280810851,-4.110463524341434
437440,St Mawgan,Primary Substation,186700.0,62949.0,50.427485,-5.004584,186693.94673887087,62940.89144171227,50.427560015004666,-5.00450350140845
926100,Rockingham Data Centre 11kv,Primary Substation,491697.0,291841.0,52.516714,-0.650102,491698.0181190037,291837.10441327764,52.516749178472786,-0.6501159134554249
890058,Tuxford 33 11kv S Stn,Primary Substation,473370.0,371388.0,53.234451,-0.902219,473371.0212660333,371386.19167794165,53.23446738933557,-0.9022338687121398
930104,Worthington 33 11kv S Stn,Primary Substation,441957.0,320741.0,52.782591,-1.379382,441956.9826633753,320737.23129299347,52.782624871874056,-1.3793812486672619
790002,Tuffley 33/11kv,Primary Substation,382049.0,215460.0,51.837405,-2.261967,382046.9872356013,215454.42331499257,51.83745519990341,-2.261938067547881
880030,Sneinton 33/11kv,Primary Substation,458387.0,339418.0,52.948952,-1.132474,458386.96762113506,339415.2471196739,52.948976736519406,-1.1324730104578105
870022,Heanor 11kv S Stn,Primary Substation,442869.0,347305.0,53.021297,-1.362367,442868.99467345444,347301.2353471873,53.021330835075155,-1.3623664091820258
890082,Denby 33 11kv S Stn,Primary Substation,438342.0,346633.0,53.015609,-1.42993,438342.0103697362,346630.339063241,53.01563291572438,-1.429929826834965
880020,Wollaton Road 33 11kv S Stn,Primary Substation,454934.0,340103.0,52.955464,-1.183743,454933.99421120994,340099.26210571866,52.95549759336972,-1.1837422686444254
890080,Staveley 11kv S Stn,Primary Substation,441109.0,374641.0,53.267152,-1.385105,441109.0012840123,374638.30063738074,53.26717625947142,-1.3851046585190965
907000,Lincoln Local No4 11kv S Stn,Primary Substation,498774.0,371144.0,53.228138,-0.521815,498775.0085670564,371141.14108377445,53.22816387379879,-0.521829204761154
670116,Kenswick 66/11kv,Primary Substation,378870.0,258928.0,52.228102,-2.310791,378868.9641962661,258923.45568614657,52.22814289027978,-2.3107761091639927
930098,Mantle Lane 33 11kv S Stn,Primary Substation,442303.0,314533.0,52.726761,-1.375051,442303.00323548476,314529.30456303613,52.726794215087615,-1.3750505606440055
510310,Wood Street,Primary Substation,318289.0,176087.0,51.477759,-3.178022,318285.9761648414,176080.55375146266,51.477817381928,-3.1779799509883633
417100,Perranporth,Primary Substation,175545.0,51663.0,50.321984,-5.154658,175538.9337622233,51655.01357777271,50.3220580204512,-5.154577659438411
210380,Wellington Town,Primary Substation,314051.0,120627.0,50.978553,-3.225716,314047.61002639827,120620.26081899699,50.97861408830184,-3.2256693086271047
930039,Dunlop 33/6.6kv,Primary Substation,433253.0,282262.0,52.437292,-1.512279,433252.9660051073,282258.32359466417,52.437325043851274,-1.5122781229425193
890091,Westhorpe 33 11kv S Stn,Primary Substation,445639.0,379326.0,53.308891,-1.31652,445638.9681270392,379323.21249790356,53.30891604836891,-1.316519108843083
930076,Atherstone 33 11kv S Stn,Primary Substation,430647.0,298698.0,52.585197,-1.549103,430646.95790733414,298694.280987444,52.58523042603545,-1.549102023509004
890065,Bakewell 33 11kv S Stn,Primary Substation,420848.0,368877.0,53.21652,-1.68925,420847.9791179238,368874.28266610793,53.21654442131242,-1.6892494980887585
330026,Old Laira Road,Primary Substation,249488.0,55880.0,50.383423,-4.118492,249482.95181910193,55871.727030858834,50.38349863689473,-4.1184243490962364
580072,Blaenporth,Primary Substation,227196.0,248890.0,52.111223,-4.525027,227190.95157693498,248885.81904238346,52.1112621266051,-4.524955465678264
690074,Raunds 33kv,Primary Substation,499005.0,272882.0,52.345041,-0.548053,499005.99761167006,272877.09727360355,52.34508523808623,-0.548066183237491
930047,Walsgrave 33 11kv S Stn,Primary Substation,437746.0,280959.0,52.425287,-1.446337,437745.98560477525,280955.2490272197,52.42532071496501,-1.4463363537193117
870032,Station Street 33 11kv S Stn,Primary Substation,424896.0,323021.0,52.804149,-1.63215,424895.95683880826,323018.3018961906,52.80417324847786,-1.632149142834761
880021,Nottingham North 11kv S Stn,Primary Substation,455601.0,342662.0,52.978405,-1.173377,455600.9929029634,342659.2145910584,52.978430031841114,-1.1733764038743597
890075,Goitside 6 6kv S Stn,Primary Substation,437154.0,370857.0,53.233431,-1.44484,437154.00446425326,370854.30857545295,53.233455188702486,-1.4448397413194591
930101,Ashby De La Zouch 33/11kv,Primary Substation,435144.0,318047.0,52.75886,-1.480675,435144.0052593609,318043.30718994496,52.75889319202389,-1.4806746708019285
670100,Leominster 66/11kv,Primary Substation,348129.0,259239.0,52.228854,-2.760891,348126.97928075446,259234.48366322042,52.22889478657778,-2.7608621003738376
260410,Lynton,Primary Substation,271023.0,148578.0,51.221727,-3.848346,271018.98266021285,148571.73980460298,51.22178416524706,-3.8482907491166367
940058,Banbury Lane 33 11kv S Stn,Primary Substation,472132.0,257992.0,52.215387,-0.945648,472131.97110271733,257987.15229999326,52.21543056737068,-0.9456465330341285
930043,Gulson Road 33 6 6kv S Stn,Primary Substation,434722.0,278962.0,52.407526,-1.491012,434722.0160546867,278957.32454917266,52.40756802809613,-1.491011740159845
920047,Market Harborough 33 11kv S Stn,Primary Substation,474637.0,287411.0,52.479487,-0.902447,474637.9888608344,287406.1490978596,52.47953073259059,-0.9024604597541691
875136,Infinity Park 33 11 Kv S Stn,Primary Substation,436191.0,331426.0,52.879055,-1.463684,436190.9735630834,331422.24330215843,52.87908876352999,-1.4636831782202522
898500,Erin Road 33 11kv S Stn,Primary Substation,444585.0,373573.0,53.257272,-1.333142,444584.98335036985,373570.22839944245,53.25729690704677,-1.3331413503140632
670136,Erdington 11kv,Primary Substation,411799.0,290583.0,52.512977,-1.827585,411797.99113683216,290579.3403902196,52.51300987399223,-1.8275699936097334
939668,Whitley South Idno Primary,Primary Substation,434941.0,275090.0,52.3727,-1.4882,434940.7055073489,275084.8945779002,52.37274587390203,-1.4881951320073254
940067,Campbell Park 33 11kv S Stn,Primary Substation,486212.0,239970.0,52.051379,-0.744161,486213.00831171067,239965.14129023306,52.051422824741564,-0.7441744636851342
910027,Long Sutton 33 11kv S Stn,Primary Substation,542667.0,322189.0,52.778403,0.113698,542668.9704786302,322184.96677973226,52.77843974851591,0.11367057746102001
310032,Tiverton Junction,Primary Substation,302960.0,111697.0,50.896505,-3.381282,302955.98994066607,111689.68334907261,50.896571444623945,-3.3812269328931457
310043,Ottery St Mary,Primary Substation,309337.0,94822.0,50.745823,-3.286453,309332.98631730245,94813.62994526638,50.745898872171644,-3.2863981788571226
910034,New Beacon Road Grantham 33 11kv S Stn,Primary Substation,492280.0,335974.0,52.91325,-0.629136,492281.01997960603,335971.0941231316,52.9132762857761,-0.6291503258103706
920032,Redcross Street 33 11kv S Stn,Primary Substation,458405.0,304375.0,52.633958,-1.13845,458404.97303816595,304371.1893676739,52.633992246054824,-1.138448916382078
890071,Hopton 33 11kv S Stn,Primary Substation,426231.0,354700.0,53.088841,-1.609795,426231.0072520076,354696.32539896166,53.08887402738887,-1.60979479714625
890059,Southwell 33 11kv S Stn,Primary Substation,471026.0,353896.0,53.077544,-0.941205,471026.999282987,353892.21356929024,53.077578159917834,-0.9412190662085766
890051,Ollerton 33 11kv S Stn,Primary Substation,465356.0,366884.0,53.195007,-1.023186,465356.962627428,366881.1818514356,53.19503244313355,-1.0231998178544608
890041,Blidworth 33 11kv S Stn,Primary Substation,457407.0,354940.0,53.088571,-1.144302,457406.999106557,354937.20609854686,53.088596108251345,-1.144301475851152
890095,Biwater 33 11kv S Stn,Primary Substation,439838.0,364271.0,53.174039,-1.405452,439837.9890288098,364268.2370851463,53.17406383017909,-1.4054514799591815
910030,Whaplode Drove 33 11kv S Stn,Primary Substation,531741.0,312913.0,52.69783,-0.051899,531742.9900793983,312908.0670555316,52.6978747996872,-0.0519264440196263
900016,Spilsby 33 11kv S Stn,Primary Substation,540782.0,365567.0,53.16858,0.104625,540784.0011640046,365564.0614192207,53.16860692219188,0.10459639081509811
920043,Kibworth 11kv S Stn,Primary Substation,466339.0,293724.0,52.537312,-1.023365,466339.01375436806,293720.23985709454,52.537345796170094,-1.0233644403119566
910049,Regent Street 33 11kv S Stn,Primary Substation,475693.0,319044.0,52.763679,-0.879666,475694.0007626847,319041.2362455338,52.763703976494206,-0.8796801778287857
910037,Westborough 33 11kv S Stn,Primary Substation,484766.0,344969.0,52.995325,-0.738496,484767.0065597708,344966.1049065115,52.995351173816566,-0.7385102216773223
670102,Brotheridge Green 66/11kv,Primary Substation,382134.0,241516.0,52.071678,-2.262083,382132.95442172885,241511.4612790731,52.071718835117466,-2.2620679732392603
690059,Warwick 11kv S Stn,Primary Substation,429963.0,265443.0,52.286272,-1.562169,429962.9819742374,265438.3391738215,52.286313895825764,-1.5621683107602158
610154,Llandrindod Wells,Primary Substation,305356.0,261428.0,52.242831,-3.387604,305352.9724155,261423.64608734899,52.242870648797535,-3.3875608825621755
930026,Courtaulds 33/6.6kv,Primary Substation,433750.0,280914.0,52.425143,-1.505104,433749.9766897097,280910.26463195577,52.42517657455837,-1.5051032690640034
900013,Horncastle 33 11kv S Stn,Primary Substation,526142.0,370676.0,53.218146,-0.112232,526143.9657800806,370673.06425269233,53.21817283750163,-0.11226025023305948
520250,Uplands Swansea,Primary Substation,264073.0,192891.0,51.618334,-3.964817,264068.91800059064,192885.75409670227,51.618382121644146,-3.9647601022280616
110375,Woodland Way,Primary Substation,364218.0,174771.0,51.470706,-2.516573,364215.94122014695,174764.4862900165,51.470764691669935,-2.516544011568156
880040,St Anns 33 11kv S Stn,Primary Substation,457662.0,340338.0,52.95729,-1.143099,457662.01107939705,340334.20074344793,52.95732414632912,-1.1430984772415964
880029,Mapperley 33/11kv,Primary Substation,458466.0,341798.0,52.970326,-1.13087,458465.95682809723,341794.2109819157,52.97036004824299,-1.130868661446489
113193,Bishopsworth,Primary Substation,357845.0,168607.0,51.414845,-2.607583,357842.9801584209,168600.49151671468,51.41490366425878,-2.607554722472887
180003,Gas Lane,Primary Substation,346875.0,176502.0,51.484903,-2.7665,346872.9725306173,176495.51499327796,51.484961490866496,-2.76647177098847
417130,St Ives,Primary Substation,150872.0,38387.0,50.192888,-5.491901,150864.93428151912,38378.03293668345,50.19297146299556,-5.4918080686972885
310024,Cullompton,Primary Substation,301330.0,107593.0,50.859334,-3.403344,301325.9441539478,107585.61305465674,50.85940109456533,-3.4032883758874206
340011,Chudleigh Knighton,Primary Substation,285040.0,77757.0,50.588117,-3.625392,285035.9704179394,77748.69592607665,50.588192436294904,-3.6253376616206605
940065,Boothville 33 11kv S Stn,Primary Substation,478027.0,264344.0,52.27168,-0.857903,478027.9992186554,264339.1545018815,52.27172369128612,-0.8579165088552442
210010,Taunton Local,Primary Substation,322887.0,124818.0,51.01748,-3.100765,322883.9485278966,124810.64373941274,51.01754654164431,-3.1007230615907235
910021,Sleaford 11kv S Stn,Primary Substation,507198.0,344996.0,52.991554,-0.404397,507199.00595773436,344993.11464357964,52.9915801245294,-0.40441101161396187
520360,Swansea North Local,Primary Substation,264365.0,200257.0,51.684595,-3.963461,264360.9228397324,200251.75179586041,51.684643140920215,-3.9634040904564487
600184,Nevern,Primary Substation,208469.0,238955.0,52.015838,-4.792597,208463.91054820037,238950.91500456491,52.01587643627612,-4.792525204496032
520258,West Cross,Primary Substation,261460.0,189629.0,51.588385,-4.001245,261455.95840526573,189623.78511122667,51.58843285005873,-4.001188748430907
880014,Lenton 33/11kv,Primary Substation,454607.0,338816.0,52.943938,-1.188826,454607.0043711982,338813.227894873,52.943962913653785,-1.188825586377667
876000,East Midlands Gateway Primary Substation 33/11kv,Primary Substation,446869.0,327023.0,52.8387,-1.3057,446866.4385202184,327024.1526472821,52.838689413335935,-1.3056621298731443
930074,Whittleford 33/11kv,Primary Substation,433005.0,292185.0,52.526502,-1.514947,433004.99624768563,292180.31022701645,52.52654415500638,-1.5149464681632931
720001,B R  Trackside 25kv S Stn,Primary Substation,404603.0,287684.0,52.487,-1.9337,404599.13431235723,287677.8959604724,52.487054839363196,-1.9336429778966646
920030,Leicester North 11kv S Stn,Primary Substation,458048.0,305802.0,52.646823,-1.143474,458047.9660753221,305798.1770419192,52.64685735610131,-1.1434728148094555
920034,Thurmaston 33 11kv S Stn,Primary Substation,461361.0,307793.0,52.664356,-1.094144,461360.95820907573,307789.25172172446,52.66438968319562,-1.094142673043785
670112,Bodenham 66/11kv,Primary Substation,353811.0,250288.0,52.148894,-2.676485,353808.96316932334,250283.52526485297,52.148934393836974,-2.676455832947915
670096,Hereford North 66/11kv,Primary Substation,351134.0,242048.0,52.074578,-2.71442,351131.9490308089,242042.53213281208,52.07462733274134,-2.714390851453859
920040,Leicester East 6 6kv S Stn,Primary Substation,460913.0,303956.0,52.629926,-1.101474,460912.96665055753,303953.2327035398,52.6299508667422,-1.1014729853197045
840003,Worfield 33/11kv,Primary Substation,377285.0,297239.0,52.572452,-2.336609,377283.95132072567,297234.4990552303,52.572492502259315,-2.336593825137389
930079,Newdigate 33 11kv S Stn,Primary Substation,434109.0,287683.0,52.485972,-1.499135,434108.99258853024,287679.2918965777,52.48600533010533,-1.4991345000880638
920035,Syston 33 11kv S Stn,Primary Substation,463542.0,311916.0,52.701164,-1.061105,463542.0157445231,311912.1882308631,52.70119825994965,-1.0611044852012999
920016,Wellingborough 11kv,Primary Substation,489823.0,266854.0,52.292442,-0.684408,489824.01338149037,266849.1859826682,52.29248542923701,-0.6844215596361711
920055,Oundle 33 11kv S Stn,Primary Substation,503760.0,289702.0,52.495331,-0.473064,503761.0097095101,289698.0874479103,52.49536634910637,-0.47307763605764214
940021,Pineham 33 11kv S Stn,Primary Substation,471308.0,258257.0,52.217877,-0.95765,471308.0159536695,258252.24862712692,52.21791970748816,-0.9576492213206457
940064,Wellingborough Road 33 11kv S Stn,Primary Substation,478507.0,262166.0,52.252035,-0.851376,478507.9918035831,262161.169990169,52.2520785518157,-0.8513893917571833
940047,Braunston Road 33 11kv S Stn,Primary Substation,456394.0,262885.0,52.261205,-1.175155,456393.9971906908,262880.2058894598,52.26124809169027,-1.175154147049472
940036,Wolverton 33/11kv,Primary Substation,480845.0,241200.0,52.063234,-0.82212,480845.97025939694,241194.15146337566,52.063286707932555,-0.8221327545850136
930038,Holbrook Lane 33/6.6kv,Primary Substation,433604.0,282067.0,52.435508,-1.507135,433604.01257125847,282062.25410793937,52.43555066102308,-1.5071346968583386
910041,Easton 33/11kv,Primary Substation,493917.0,326545.0,52.828223,-0.607517,493917.974659023,326541.18849243375,52.828257419211845,-0.6075303530134591
910023,Spalding Park Road 33 11kv S Stn,Primary Substation,524535.0,323637.0,52.795896,-0.154404,524536.9957505965,323633.0084577991,52.795932319792584,-0.15443205123243503
910043,Old Dalby 33 11kv S Stn,Primary Substation,468526.0,322764.0,52.798061,-0.985084,468526.9716721112,322760.25233717385,52.79809480385487,-0.9850976121307535
910048,Market Overton 33 11kv S Stn,Primary Substation,490084.0,318732.0,52.75866,-0.666538,490084.96116885974,318728.1078209927,52.758695135818,-0.6665511574575737
940038,Portway 33 11kv S Stn,Primary Substation,485022.0,239245.0,52.045037,-0.761691,485022.9962938965,239239.14954197197,52.04508973538711,-0.7617040575421712
417120,Roseland,Primary Substation,187560.0,37422.0,50.198528,-4.978123,187553.95620755834,37412.91507945227,50.198611758606596,-4.978043508134211
870034,Bretby 33/11kv,Primary Substation,428752.0,321810.0,52.7931,-1.5751,428749.2506305264,321810.38700048614,52.79309637171365,-1.5750592505189902
890088,Ripley 33 11kv S Stn,Primary Substation,439878.0,351320.0,53.057626,-1.406458,439878.00798519026,351317.2493022912,53.05765072216873,-1.4064577668120564
920022,Quorn 33 11kv S Stn,Primary Substation,455858.0,317162.0,52.749165,-1.173914,455857.9646354926,317158.2892622435,52.74919834713046,-1.1739128328016157
880033,Keyworth 33 11kv S Stn,Primary Substation,462037.0,330576.0,52.86907,-1.079829,462037.9589946099,330573.2496094943,52.86909482790861,-1.079842708753503
880024,Clifton 33 11kv S Stn,Primary Substation,455360.0,334385.0,52.904034,-1.178376,455359.99003906647,334382.2698162525,52.9040585354497,-1.1783753750757682
880009,Toton 11kv S Stn,Primary Substation,449577.0,335736.0,52.916741,-1.264141,449577.01222589356,335733.28869059996,52.91676536840658,-1.2641407561448115
330011,Tavistock,Primary Substation,247022.0,74957.0,50.554226,-4.160957,247016.92468552728,74948.82148454504,50.55430082017746,-4.160888760318426
111158,Clifton,Primary Substation,357562.0,173143.0,51.455607,-2.612197,357559.99905664695,173136.46569251828,51.45566589582548,-2.6121689787314577
210070,Wiveliscombe,Primary Substation,308331.0,127058.0,51.035487,-3.308794,308327.9406242443,127051.64013525195,51.035544657774416,-3.308751980198933
940025,Secklow Gate 33 11kv S Stn,Primary Substation,486086.0,238845.0,52.041278,-0.746281,486087.0224430586,238839.1922501856,52.04133035717423,-0.7462944302362828
940041,Newport Pagnell 33 11kv S Stn,Primary Substation,487418.0,242724.0,52.075935,-0.725875,487418.9789843933,242718.1041687432,52.07598814399329,-0.7258877595285315
940070,Kingston 33/11kv,Primary Substation,490127.0,238910.0,52.04123,-0.687363,490128.02374822344,238905.20464105246,52.04127326399175,-0.6873766467759017
930100,Osbaston 33 11kv S Stn,Primary Substation,442219.0,303660.0,52.629029,-1.377685,442218.98300845595,303656.3264796532,52.629062016989444,-1.3776842682317567
417780,Mullion,Primary Substation,170319.0,18498.0,50.022161,-5.207944,170311.95480217147,18488.9635962591,50.02224485513787,-5.207851208083071
417540,Camborne Holmans,Primary Substation,165393.0,40078.0,50.214013,-5.289864,165385.90872580695,40069.98045318853,50.214087811326365,-5.289769725474981
870028,Marchington 33 11kv S Stn,Primary Substation,413382.0,331316.0,52.879113,-1.802617,413380.9871275206,331312.3259922522,52.87914599828927,-1.8026017877741654
417140,Truro Shortlanesend,Primary Substation,181419.0,46598.0,50.278706,-5.069334,181412.9443381572,46589.92621753612,50.27878074355649,-5.0692537928984045
870042,Morley 33/11kv,Primary Substation,439471.0,341386.0,52.9684,-1.4137,439473.7317802424,341387.4273123355,52.96838736734889,-1.4137408336398367
113180,Keynsham West,Primary Substation,364888.0,168461.0,51.414014,-2.506299,364885.96812720253,168454.52628858498,51.414072328282955,-2.506270416659299
857183,Chatterley Whitfield Stor 33kv,Primary Substation,388206.0,353340.0,53.077132,-2.177516,388204.998110429,353337.45263721806,53.07715491730787,-2.1775011269605837
930048,Claverdon 33 11kv S Stn,Primary Substation,420883.0,264351.0,52.276873,-1.69536,420881.9613443504,264346.3427730419,52.27691482590258,-1.695344477997325
210080,Somerton,Primary Substation,348164.0,129047.0,51.058352,-2.741055,348160.95170699834,129040.49014286688,51.05841080352947,-2.7410124323138025
340013,Ashburton,Primary Substation,276510.0,70372.0,50.519992,-3.743382,276505.96244042186,70363.75360977449,50.52006697257596,-3.7433277954213886
940072,Brackmills 33 11kv S Stn,Primary Substation,477519.0,259061.0,52.224265,-0.866557,477519.9913880148,259056.12869474612,52.224308921437995,-0.8665703831868381
940071,Eldergate 33 11kv S Stn,Primary Substation,484356.0,238758.0,52.04077,-0.771519,484357.0165577264,238753.13103835157,52.04081391523315,-0.771532605172986
940037,Marlborough Street 33/11kv,Primary Substation,485182.0,241151.0,52.062154,-0.758884,485182.981563034,241146.200136555,52.06219729005393,-0.7588971057777176
940029,Buckingham 33 11kv S Stn,Primary Substation,470410.0,233579.0,51.99615,-0.975886,470410.01166717336,233573.17324811168,51.99620237545104,-0.9758849626338618
940026,Thenford 33 11kv S Stn,Primary Substation,452114.0,242433.0,52.077762,-1.240992,452114.00120748364,242427.30204528326,52.07781321934069,-1.2409911368487492
900039,Tattershall 33 11kv S Stn,Primary Substation,519044.0,355844.0,53.086522,-0.223987,519045.98794316064,355841.03880053473,53.086549044910015,-0.22401555752414157
850005,Cotes Heath 33/11kv,Primary Substation,383418.0,334920.0,52.911425,-2.248035,383416.95445134066,334917.47820596956,52.91144769800887,-2.248019570393066
940014,Steeple Claydon 33 11kv S Stn,Primary Substation,469462.0,226139.0,51.929398,-0.991194,469461.96611311944,226134.24071565823,51.92944077464407,-0.9911925358243499
114741,Patchway,Primary Substation,361129.0,180478.0,51.521813,-2.561673,361126.9849488382,180471.43862252688,51.52187212782097,-2.5616446731938622
870048,Ilkeston 33 11kv S Stn,Primary Substation,445459.0,342282.0,52.9759,-1.3245,445456.57423917286,342274.38549665833,52.97596823496813,-1.3244627981906272
870013,Barton Under Needwood 33 11kv S Stn,Primary Substation,420043.0,317897.0,52.75828,-1.704447,420042.97089047893,317893.35138394666,52.75831279426283,-1.7044463344923804
520207,Pontardawe,Primary Substation,272050.0,203825.0,51.718455,-3.853669,272045.96333455,203818.7648815405,51.71851194861044,-3.8536128795118616
330019,Elim Terrace,Primary Substation,248250.0,56467.0,50.38838,-4.13613,248244.93180375744,56458.73307059717,50.388455597724416,-4.136062086890175
111800,Mangotsfield,Primary Substation,365787.0,176497.0,51.486322,-2.494152,365784.9993581572,176490.47241736914,51.486380807290004,-2.4941238115820266
600231,St Twynells,Primary Substation,195347.0,197558.0,51.639446,-4.959068,195341.93886022412,197552.94330858882,51.63949324292027,-4.958997910955646
590052,Aberaeron,Primary Substation,245976.0,261850.0,52.233202,-4.25689,245971.97373434337,261845.83270580688,52.233240559250554,-4.256832981246435
580247,Trevaughan,Primary Substation,240223.0,220833.0,51.86309,-4.32187,240218.97772455163,220827.8254633454,51.86313763369511,-4.321814021622078
550267,Aberdare,Primary Substation,299701.0,202681.0,51.713813,-3.453206,299697.94998731615,202675.61706367438,51.71386192464561,-3.4531634087885745
550244,Tredegar,Primary Substation,314439.0,208798.0,51.771243,-3.241448,314435.9724527603,208792.57770650537,51.77129219960091,-3.241405460769802
260480,Fremington,Primary Substation,249781.0,131957.0,51.067169,-4.145387,249775.9271404658,131949.77661688847,51.067235231528244,-4.145317646275241
560253,Victoria Road,Primary Substation,275571.0,189912.0,51.594223,-3.797771,275566.9317007994,189906.67090692214,51.594271786792696,-3.797714180203554
560150,Litchard,Primary Substation,290939.0,181747.0,51.524015,-3.573472,290934.9273891635,181740.63592166686,51.52407298322485,-3.5734152821893166
260580,Aaronsons,Primary Substation,268598.0,126485.0,51.022619,-3.874993,268593.94010523864,126478.72523969432,51.022676317337215,-3.8749374118884417
210110,Edgarley,Primary Substation,352911.0,138041.0,51.139622,-2.674488,352908.96672319586,138033.46650364573,51.1396898993894,-2.674459915357615
310013,Lapford,Primary Substation,272745.0,107475.0,50.852685,-3.80925,272740.98121850524,107467.71179825842,50.85275138599367,-3.8091954635580643
310014,Cowley Road,Primary Substation,291322.0,93970.0,50.735077,-3.541451,291317.9578079674,93962.65122964117,50.73514381287526,-3.541395900779704
870040,Normanton 33 11kv S Stn,Primary Substation,434242.0,333641.0,52.899093,-1.49241,434242.0026211147,333637.2701096362,52.89912652455561,-1.4924096348394884
113369,Filton Dc,Primary Substation,360330.0,179112.0,51.509476,-2.573034,360328.0019540086,179105.48452591238,51.50953471669344,-2.573005935298523
330042,Langage,Primary Substation,256764.0,55950.0,50.385871,-4.016245,256758.965494952,55941.75561572355,50.38594631909366,-4.016177362563798
160355,Entry Hill,Primary Substation,374729.0,162487.0,51.360825,-2.36437,374726.9862816524,162480.5088850297,51.36088345010136,-2.364341530765696
181360,Weston Central,Primary Substation,331871.0,161199.0,51.345714,-2.979618,331867.9770644922,161192.61235388758,51.34577178564494,-2.979575817717308
550182,Nantwen,Primary Substation,309383.0,200962.0,51.700011,-3.31266,309379.9348617402,200956.62087212288,51.70005984295003,-3.312617049056738
340032,Torwood,Primary Substation,292260.0,63510.0,50.461418,-3.519319,292255.976956209,63501.71378719143,50.461493226713515,-3.5192647193033952
340023,Dawlish,Primary Substation,295297.0,76530.0,50.579018,-3.480205,295292.98670111125,76521.68225965725,50.579093490468054,-3.480150672007933
940032,Silverstone 33 11kv S Stn,Primary Substation,466505.0,242268.0,52.074748,-1.031067,466504.9771094852,242263.16243264353,52.07479147939894,-1.031065712442333
870045,Osmaston Road 33/6.6kv,Primary Substation,436143.0,334664.0,52.908165,-1.464038,436143.00303241983,334660.3121901166,52.908198146138936,-1.4640376235743555
898163,Bentinck Generation 33kv,Primary Substation,449000.0,355150.0,53.091295,-1.269784,448999.9870962372,355147.2650437972,53.09131957810544,-1.2697833785628714
890090,Meadow Lane 33 11kv S Stn,Primary Substation,441891.0,356287.0,53.102119,-1.37578,441891.0118997154,356284.31714801723,53.102143112387346,-1.375779816042739
340021,Totnes Primary,Primary Substation,280185.0,60856.0,50.435207,-3.688515,280180.9310756609,60846.74354243756,50.43529103401548,-3.6884606833063946
310057,Dunkeswell 33/11kv,Primary Substation,314497.0,107044.0,50.856498,-3.216171,314493.96559511713,107036.60642255217,50.856564915555765,-3.2161296188377233
310044,Core Hill,Primary Substation,312049.0,89897.0,50.701962,-3.246834,312045.95468121103,89888.57222482975,50.702038226440315,-3.2467928872394785
310037,Withycombe Raleigh,Primary Substation,301527.0,82360.0,50.632515,-3.393792,301522.9349901166,82351.59842216148,50.63259121358826,-3.3937367642221288
310031,Topsham,Primary Substation,296644.0,88223.0,50.6844,-3.4645,296636.54081366514,88217.33119904553,50.68445228254416,-3.4643960265646325
310023,Tiverton Moorhayes,Primary Substation,296057.0,114093.0,50.9168,-3.4801,296052.0578634593,114081.14765118543,50.916907431123946,-3.4800330904326406
350023,Roadford,Primary Substation,242026.0,89987.0,50.687955,-4.237831,242020.95413661608,89978.75962344708,50.68803041252857,-4.237763139858065
350016,Northam,Primary Substation,245194.0,129310.0,51.042174,-4.209669,245188.93856675233,129303.78380648154,51.04223121515981,-4.209599507600802
180820,Weston-In-Gordano,Primary Substation,344782.0,174195.0,51.463961,-2.796278,344779.96693899477,174188.54993488925,51.46401918439961,-2.7962497358520406
310038,Exmouth Works,Primary Substation,300645.0,81380.0,50.623555,-3.405996,300640.95654281526,81371.61424187623,50.62363107333654,-3.4059410946411024
790026,Bilson 33/11kv,Primary Substation,364952.0,213898.0,51.822556,-2.509939,364949.99807535164,213893.4437029417,51.82259708551764,-2.5099104069150355
930105,Bruntingthorpe 33 11kv S Stn,Primary Substation,460115.0,288253.0,52.488855,-1.116103,460114.99850680085,288249.20399417996,52.48888911782973,-1.1161022815818085
940049,Daventry 11kv S Stn,Primary Substation,457786.0,262756.0,52.25991,-1.154784,457786.00733894785,262752.1854759756,52.2599442867189,-1.1547834433653776
890040,Clipstone 11kv S Stn,Primary Substation,460031.0,363538.0,53.165561,-1.103507,460031.9732696039,363535.24957193737,53.16558582660427,-1.1035210281303887
890033,Annesley (Kirkby) 11kv S Stn,Primary Substation,450671.0,354901.0,53.088901,-1.244874,450670.9941212651,354898.2313797704,53.088925881179314,-1.2448734639908967
921092,Irthlingborough 11kv S Stn,Primary Substation,494559.0,269990.0,52.319833,-0.61411,494559.9951546577,269985.1332730426,52.31987690730367,-0.6141232163742484
930096,Whetstone 33 11kv S Stn,Primary Substation,455357.0,296979.0,52.567796,-1.184716,455357.0160275331,296975.2813833095,52.56782942419303,-1.1847156041994742
890087,Wessington 33 11kv S Stn,Primary Substation,438088.0,358022.0,53.117998,-1.432373,438087.956298797,358019.28298470064,53.11802241562201,-1.432372012857622
890086,Somercotes 33 11kv S Stn,Primary Substation,442107.0,354408.0,53.085212,-1.3728,442106.9880369358,354405.24042570643,53.08523680017364,-1.3727994482619332
880038,Sibthorpe 33 11kv S Stn,Primary Substation,475560.0,345280.0,52.999496,-0.875554,475561.00466925895,345277.142405952,52.99952182054013,-0.8755682868102019
930088,Middlefield 33 11kv S Stn,Primary Substation,442513.0,295549.0,52.556094,-1.374381,442512.954702042,295545.2906740567,52.5561273369729,-1.3743798453755878
540120,Energlyn 33kv,Primary Substation,314199.0,188913.0,51.592459,-3.240031,314195.994714806,188907.61848424887,51.59250782936008,-3.239988934490926
938836,Rugby Gateway,Primary Substation,450979.0,278723.0,52.404116,-1.252089,450978.99993412895,278719.2283350961,52.404149900758156,-1.2520884134215802
926144,Hockley Farm Road 33 11kv S Stn,Primary Substation,455085.0,303949.0,52.630476,-1.187571,455084.9912707386,303945.2816628999,52.63050941888879,-1.187570239590472
939482,Jlr Whitley,Primary Substation,435150.0,276166.0,52.382363,-1.485014,435149.96117455617,276161.26935241057,52.38240552092129,-1.4850129227621542
883362,Watnall 33 11kv S Stn,Primary Substation,450407.0,345854.0,53.007609,-1.250228,450406.96312901494,345851.2749677617,53.007633486790255,-1.2502270135088454
930092,Coalville 11kv S Stn,Primary Substation,445554.0,310306.0,52.688492,-1.327501,445553.986805553,310301.27870249376,52.68853443507875,-1.3275001404964282
940051,West Haddon 33 11kv S Stn,Primary Substation,465104.0,273399.0,52.354746,-1.045527,465104.01000862767,273393.20504496444,52.35479808752965,-1.0455260124712673
900018,Warth Lane 33 11kv S Stn,Primary Substation,554397.0,363126.0,53.142884,0.306952,554399.0079660052,363122.9335655959,53.142912119604446,0.3069234955991491
930080,Gipsy Lane 33 11kv S Stn,Primary Substation,437881.0,289420.0,52.501339,-1.443394,437880.97014907125,289416.32025013294,52.501372073240645,-1.4433931303142442
900015,Chapel St Leonards 33 11kv S Stn,Primary Substation,554696.0,372333.0,53.2255,0.315886,554699.0072533094,372331.0228901674,53.22551862894434,0.3158419646159493
870044,Chaddesden 33 11kv S Stn,Primary Substation,437681.0,336524.0,52.924779,-1.440956,437680.97657049325,336520.3144756329,52.9248121235453,-1.440955212367115
890076,Belper 33 11kv S Stn,Primary Substation,435207.0,346606.0,53.015572,-1.476661,435206.9833287125,346602.33859865775,53.01560490702073,-1.4766603409037942
910047,Asfordby 11kv S Stn,Primary Substation,472323.0,320936.0,52.7811,-0.9292,472322.86471472925,320928.19644261576,52.781170116127896,-0.9291962605982349
940053,Earls Barton 33 11kv S Stn,Primary Substation,484689.0,263465.0,52.262795,-0.760514,484690.0012189385,263460.1453885606,52.26283878407936,-0.7605274373282859
910046,West Deeping 33 11kv S Stn,Primary Substation,511261.0,309481.0,52.671591,-0.355987,511262.0216119557,309477.1353326275,52.67162593354445,-0.3560007851581135
900034,Lincoln No 2 11kv S Stn,Primary Substation,498789.0,371144.0,53.228135,-0.521591,498789.96786568814,371141.11640635616,53.22816108801193,-0.5216045875044963
930057,Gaydon 33 11kv S Stn,Primary Substation,435280.0,256073.0,52.201712,-1.485201,435279.99666941876,256067.27023169998,52.20176350646912,-1.4852003441586388
920021,Brush 33/11kv,Primary Substation,454479.0,320747.0,52.781529,-1.193746,454479.0050520522,320743.21111036773,52.781563053772395,-1.1937454329931299
930095,Alliance And Leicester 33 11kv S Stn,Primary Substation,453821.0,298667.0,52.583114,-1.207102,453820.99765021296,298662.263497904,52.58315657215308,-1.2071011847204416
900036,Wragby 33 11kv S Stn,Primary Substation,512924.0,377965.0,53.286607,-0.307511,512926.0069626414,377962.08688558225,53.28663359764194,-0.30754004331422763
890089,Halfway 33 11kv S Stn,Primary Substation,443907.0,381455.0,53.328173,-1.342217,443907.00592574634,381452.250007496,53.32819771452771,-1.3422166960791586
890025,Moorgreen 33 11kv S Stn,Primary Substation,447358.0,347553.0,53.023149,-1.295415,447357.9816729855,347549.2656570869,53.023182560969005,-1.295414167353288
930072,Polesworth 33 11kv S Stn,Primary Substation,426312.0,302161.0,52.616545,-1.612809,426311.9583877083,302156.2761246631,52.61658745977212,-1.6128079986765405
790016,Elton 33/11kv,Primary Substation,369586.0,213726.0,51.821273,-2.442692,369584.00331898686,213720.4394113546,51.82132309831499,-2.442663511025185
161315,Paulton,Primary Substation,364586.0,156952.0,51.310514,-2.509491,364583.9877081852,156945.51971330363,51.310572387718906,-2.5094627657324575
330041,Central Intake,Primary Substation,245067.0,55416.0,50.378105,-4.180438,245061.97651938017,55407.80628853236,50.378179952845876,-4.180370770608924
330020,Alma Road,Primary Substation,247004.0,56060.0,50.3844,-4.153479,246998.93001478966,56051.81801558647,50.384474844557666,-4.153411060573802
457480,St Neot,Primary Substation,219108.0,67380.0,50.478188,-4.550949,219102.9380151407,67372.88557671336,50.4782534744281,-4.550881163943096
457260,Callington,Primary Substation,235585.0,69747.0,50.504304,-4.319974,235579.91168715607,69738.79474804286,50.504379153409424,-4.319905913208185
437570,Fowey,Primary Substation,211688.0,52392.0,50.341196,-4.647904,211681.92782330778,52383.909532639955,50.3412706186796,-4.647822795229337
437400,Mevagissey,Primary Substation,200673.0,46628.0,50.285785,-4.799468,200666.96323127882,46618.86400064133,50.28586909926054,-4.799388175777082
437350,Blackpool,Primary Substation,198688.0,53332.0,50.345338,-4.830874,198681.9433359963,53323.93032780636,50.34541254963976,-4.830793287442507
417600,Truro Treyew Road,Primary Substation,181626.0,44238.0,50.257589,-5.065071,181619.94535921616,44229.96035311921,50.257663433371704,-5.064990814737282
417320,Constantine 33kv,Primary Substation,172505.0,29835.0,50.124814,-5.184205,172498.91753836334,29827.018556126233,50.12488799723497,-5.184124793473509
417150,Hayle,Primary Substation,155367.0,38114.0,50.192312,-5.428868,155359.93129004343,38105.05272862734,50.19239523829232,-5.428774902598376
417090,St Buryan,Primary Substation,140400.0,26608.0,50.082671,-5.630303,140392.30899557789,26599.520521081722,50.082750461867576,-5.630201466210739
417040,Geevor,Primary Substation,137627.0,34023.0,50.148,-5.674069,137619.94793064316,34014.050455497694,50.14808343715071,-5.67397665600207
850013,Talke 33/11kv,Primary Substation,382464.0,353942.0,53.082384,-2.263259,382463.00406961824,353939.4024564384,53.082407378815425,-2.263244262513855
310049,Haven Road,Primary Substation,292047.0,91975.0,50.717279,-3.530597,292042.9324917596,91967.71770603544,50.71734521500273,-3.530541527604328
161641,Shepton Mallet,Primary Substation,361997.0,143876.0,51.192765,-2.54524,361994.98850081844,143868.47442504272,51.19283279575062,-2.5452120043053053
910018,Grantham North 11kv S Stn,Primary Substation,491022.0,338647.0,52.937486,-0.64709,491022.9752512138,338644.0993309229,52.93751222927281,-0.6471036806099261
162406,Peasedown,Primary Substation,370089.0,157672.0,51.317304,-2.430604,370086.98086810124,157665.42122154185,51.31736325483017,-2.430575571466898
940028,Brackley Town 33 11kv S Stn,Primary Substation,459256.0,236889.0,52.027206,-1.137751,459256.0151649129,236883.2025034189,52.02725811478263,-1.1377502066256315
161701,Newbury,Primary Substation,369931.0,150081.0,51.249041,-2.43223,369928.9496728082,150074.43879119895,51.249100099430564,-2.4322011667350774
318110,Liverton Farm 33kv Solar Park,Primary Substation,303567.0,82890.0,50.637622,-3.365094,303562.9361485154,82881.67586134738,50.63769750394688,-3.365038707896278
947000,Brackley 11kv,Primary Substation,458659.0,239324.0,52.049168,-1.146035,458658.96030011395,239319.1922990881,52.049211211021486,-1.1460335851901726
330032,Newton Ferrers,Primary Substation,255858.0,49470.0,50.327401,-4.026498,255852.97754199943,49460.77466011047,50.32748513807302,-4.026431003617403
350019,Hatherleigh,Primary Substation,253906.0,104100.0,50.817892,-4.075375,253900.95009270014,104091.80876092243,50.81796688118873,-4.075306616634207
350014,Holsworthy,Primary Substation,234098.0,103379.0,50.806084,-4.356003,234092.94054724064,103371.80611211775,50.806150081005605,-4.355934501708205
920024,Mansfield St 33 11kv S Stn,Primary Substation,458744.0,304917.0,52.638785,-1.133345,458744.0082354753,304912.26014747366,52.638827602238855,-1.1333442672637015
920028,Jupiter 33 11kv S Stn,Primary Substation,456652.0,303524.0,52.626494,-1.164494,456652.02286137,303520.19063369883,52.6265282402198,-1.164493673167847
920041,South Croxton 33 11kv S Stn,Primary Substation,467752.0,311464.0,52.696592,-0.998906,467752.0092325065,311460.2139761677,52.69662602724402,-0.998905345515956
930062,Lutterworth 33 11kv S Stn,Primary Substation,453327.0,284453.0,52.455392,-1.216667,453327.010370107,284448.2476726587,52.4554347165669,-1.216666382292282
164210,Bath University 33,Primary Substation,377243.0,164260.0,51.376873,-2.328378,377240.9520593407,164253.42389326973,51.37693220689201,-2.328348988802749
560158,Llangewydd,Primary Substation,289151.0,180582.0,51.513196,-3.598867,289146.92414896155,180575.68220909784,51.51325357980965,-3.5988102666307915
210490,Luckwell Bridge,Primary Substation,290735.0,138761.0,51.137603,-3.563212,290730.96113153093,138754.69210987852,51.137660466189864,-3.563156198553633
210390,Culmhead,Primary Substation,322100.0,116208.0,50.939955,-3.110134,322096.96475673217,116199.5434609176,50.94003143530846,-3.110092609666599
210050,Lydeard St Lawrence Primary,Primary Substation,313337.0,131908.0,51.079866,-3.23858,313333.965908765,131901.58135601718,51.079924157614606,-3.2385382282091157
182983,Portishead Ashlands,Primary Substation,348327.0,176963.0,51.489192,-2.745659,348324.9549710391,176957.56505920662,51.489241046692264,-2.7456303347196043
790028,Princess Royal 33/11kv,Primary Substation,361335.0,206375.0,51.754663,-2.561574,361332.9791295816,206368.4996905949,51.75472157743885,-2.5615454388070464
900019,Wrangle 33 11kv S Stn,Primary Substation,542233.0,351431.0,53.041204,0.12006,542235.0245303765,351427.0148064759,53.04124033326314,0.1200315958707913
890064,Flagg 33 11kv S Stn,Primary Substation,414657.0,368708.0,53.215207,-1.78197,414656.9594758094,368705.3534870191,53.21523078461578,-1.7819692599905563
920061,Harrold 33 11kv S Stn,Primary Substation,495441.0,257382.0,52.206365,-0.604735,495442.0130114419,257377.16939098883,52.206408587252525,-0.6047484469287077
920026,Beaumont Leys 33/11kv,Primary Substation,457279.0,308302.0,52.669377,-1.154405,457278.9806372521,308298.2503083397,52.6694106990982,-1.1544040505958653
560220,Schwyll,Primary Substation,288866.0,177049.0,51.481386,-3.601858,288861.9531871158,177042.73325106554,51.48144311668197,-3.601801710956345
920038,Stoneygate 33 6 6kv S Stn,Primary Substation,460938.0,302427.0,52.616171,-1.101386,460937.9877059685,302423.27842757053,52.61620444679302,-1.1013851210425358
920031,Braunstone 33 11kv S Stn,Primary Substation,456805.0,301713.0,52.610191,-1.162545,456805.00391579774,301708.2609551769,52.610233595004246,-1.1625442327782252
920023,Lero 33 6 6kv S Stn,Primary Substation,459127.0,305563.0,52.644559,-1.127571,459126.9577619815,305559.2424700789,52.6445927668851,-1.1275696912692499
350018,Bideford Main,Primary Substation,245843.0,125927.0,51.011942,-4.198979,245837.91666099438,125919.84120118272,51.01200768439485,-4.198909627031571
160415,Chewton Mendip,Primary Substation,360670.0,152687.0,51.271908,-2.565199,360667.9866289877,152680.52999877854,51.271966308793225,-2.565170843208947
850006,Hookgate 33/11kv,Primary Substation,374558.0,335143.0,52.913072,-2.379798,374556.9489835678,335139.45478788886,52.91310391483135,-2.379782638104495
670087,Bloxham 66/11kv,Primary Substation,442189.0,237195.0,52.031515,-1.386448,442188.981156747,237189.29493275238,52.03156628366737,-1.3864470114633913
900020,Stickney 33 11kv S Stn,Primary Substation,535350.0,356526.0,53.088768,0.019608,535351.9897346055,356522.9760120403,53.08879566637868,0.019579595221901013
340038,Salcombe 340038,Primary Substation,273350.0,38697.0,50.234585,-3.77726,273345.9208504591,38687.711940228764,50.234669360279156,-3.77720592751695
181346,Compton Martin 33/11kv S/S,Primary Substation,354422.0,158653.0,51.325082,-2.655521,354419.9602491508,158646.46004022565,51.325140960833586,-2.655492556397669
680045,Newcastle 33/11kv,Primary Substation,383858.0,348119.0,53.030077,-2.242155,383856.96507162193,348115.4768397995,53.03010869794389,-2.242139733993253
180173,Blagdon 33/11kv S/S,Primary Substation,350287.0,160029.0,51.337107,-2.715051,350285.00077715016,160022.52697527557,51.33716536952927,-2.7150231980237884
670101,Stratford 66/11kv,Primary Substation,417761.0,255201.0,52.194721,-1.741595,417759.9852544268,255196.30118352384,52.19476320725141,-1.7415798979969646
790019,Wyelands 33kv,Primary Substation,360301.0,217625.0,51.855734,-2.577845,360298.993111363,217618.50129244168,51.85579256519768,-2.577816599834114
670098,Bevington 66/11kv,Primary Substation,403954.0,252813.0,52.173522,-1.943614,403952.95795607276,252808.42369382136,52.173563131605725,-1.9435986987903764
670091,Stow 66/11kv,Primary Substation,415918.0,225120.0,51.924324,-1.769949,415916.9975069946,225114.32426409528,51.92437499631428,-1.7699341497875745
850011,Stoke Chp,Primary Substation,387003.0,343237.0,52.986287,-2.195063,387001.9525836749,343234.4182507975,52.98631022995108,-2.1950474906369553
870047,Castle Donington 33 11kv S Stn,Primary Substation,443085.0,327258.0,52.8411,-1.3618,443085.11876132316,327256.12197906536,52.84111688719915,-1.3618015030209392
930059,Princethorpe 33 11kv S Stn,Primary Substation,439996.0,270425.0,52.330422,-1.414504,439995.9755830757,270420.2896069828,52.330464339376114,-1.4145030705588235
330018,Alexandra Road,Primary Substation,248436.0,58781.0,50.409215,-4.134449,248430.9480058758,58771.75856390572,50.40929935053179,-4.1343816769025885
890085,Clowne 33 11kv S Stn,Primary Substation,450731.0,376041.0,53.2789,-1.2406,450733.0279432357,376037.83923448063,53.27892859924152,-1.2406298945404768
530252,Usk,Primary Substation,336597.0,202286.0,51.715653,-2.919184,336593.9723308495,202280.50774923665,51.71570271361127,-2.919141171616074
890066,Eyam 33 11kv S Stn,Primary Substation,421894.0,375952.0,53.280073,-1.673102,421893.9803571938,375949.3050499516,53.28009721987619,-1.6731015080907092
938993,Courthouse Green 33/6.6kv,Primary Substation,435159.0,281489.0,52.430215,-1.484324,435158.9865922764,281484.31025981036,52.43025715449062,-1.4843232987082502
850009,Gnosall 33/11kv,Primary Substation,382722.0,320551.0,52.782226,-2.257618,382720.9449379949,320547.4126704276,52.78225827840917,-2.2576025365047063
920066,Astrazeneca 33/11kv,Primary Substation,452896.0,321540.0,52.788814,-1.217085,452895.99933862523,321536.2014625845,52.78884814007682,-1.2170843648060854
920049,Corby Central 33/11kv,Primary Substation,490176.0,289777.0,52.498409,-0.673069,490177.014727914,289772.18772164744,52.49845241416607,-0.6730826283821031
880031,Calverton 33 11kv S Stn,Primary Substation,460239.0,350365.0,53.04714,-1.102863,460239.9565234881,350362.25131830765,53.047164809324265,-1.1028767406605815
874558,Burton 11kv,Primary Substation,425452.0,324307.0,52.815675,-1.623803,425451.97024375305,324303.3720171391,52.81570760791831,-1.6238022646923889
900038,Woodhall Spa 33 11kv S Stn,Primary Substation,517797.0,361986.0,53.141983,-0.240344,517799.0082863545,361983.08084390307,53.14200966792486,-0.24037292327944085
900022,Mount Bridge Boston 33 11kv S Stn,Primary Substation,533429.0,343173.0,52.969283,-0.014575,533431.0151526988,343169.01385529194,52.96931930825602,-0.014603332539195477
930028,Hawkesmill Lane 33/6.6kv,Primary Substation,429973.0,282870.0,52.442938,-1.560471,429973.00655389903,282865.34634855675,52.442979831667586,-1.5604706680368134
870015,Eagle Centre 33/11kv,Primary Substation,435630.0,335930.0,52.919579,-1.471527,435630.0006470175,335926.2998107589,52.91961225724156,-1.4715265923048884
940052,Bugbrooke 33/11kv,Primary Substation,468499.0,257857.0,52.214637,-0.998841,468498.9842957187,257852.22136890376,52.21467994907085,-0.9988397921623049
940069,Shenley Wood 33 11kv S Stn,Primary Substation,482803.0,236317.0,52.019054,-0.794746,482804.0089372927,236311.18715641787,52.01910639590213,-0.7947592827395269
910058,Leadenham 33 11kv S Stn,Primary Substation,495493.0,350804.0,53.045958,-0.577,495493.989944221,350801.0867671878,53.045984352432846,-0.577013886368691
890055,Bevercotes 33 11kv S Stn,Primary Substation,469475.0,374376.0,53.261828,-0.959912,469476.01393396076,374374.1899430244,53.26184439686915,-0.9599267899662507
890068,Millclose 33 11kv S Stn,Primary Substation,425768.0,362348.0,53.157619,-1.616097,425767.95456028223,362345.37065333285,53.157642629044624,-1.616096097160717
890074,Matlock 33 11kv S Stn,Primary Substation,430140.0,360277.0,53.138783,-1.55091,430139.96164356475,360275.2663671253,53.13879857765085,-1.5509092515982528
890098,Staveley Works 33kv S Stn,Primary Substation,442753.0,374917.0,53.269503,-1.360421,442752.9922028272,374914.28362511884,53.26952741153186,-1.3604205060653958
670151,Hereford Central 66/11kv,Primary Substation,351012.0,240359.0,52.059392,-2.715957,351009.9534286798,240354.5026748645,52.05943260772727,-2.7159277874746994
940063,Roade 33 11kv S Stn,Primary Substation,475973.0,251079.0,52.152733,-0.890972,475973.9576143178,251074.22162630578,52.15277607916798,-0.8909849141226225
840025,Spring Gardens 33/11kv,Primary Substation,350168.0,313868.0,52.720124,-2.739228,350165.94639714295,313864.4744646001,52.72015587647384,-2.7391981235836553
750003,Craven Arms 33/11kv,Primary Substation,343580.0,282905.0,52.441146,-2.831467,343577.9782756783,282900.5901090336,52.441185846131326,-2.8314379962502287
670115,Droitwich 66/11kv,Primary Substation,388463.0,264007.0,52.27405,-2.170519,388461.9981204629,264002.4422559947,52.27409099243107,-2.170504462380711
670083,Tewkesbury 66/11kv,Primary Substation,388915.0,231990.0,51.986203,-2.16284,388914.0071763351,231984.44968449493,51.98625291689373,-2.1628257124788686
670104,Strensham 66/11kv,Primary Substation,390487.0,241077.0,52.06793,-2.140205,390486.0024147126,241071.41798508697,52.06798019863619,-2.1401905927673917
870017,Melbourne 33/11kv,Primary Substation,438272.0,323675.0,52.809247,-1.433671,438271.96323035983,323672.2466197133,52.80927174403244,-1.4336701205290623
850008,Market Drayton 33/11kv,Primary Substation,367687.0,333940.0,52.901897,-2.48185,367685.9601785889,333937.51283859723,52.90191941638421,-2.4818347780308776
670119,Redditch North 66/11kv,Primary Substation,403457.0,268356.0,52.313261,-1.950727,403456.0113246174,268351.34265823936,52.31330286050649,-1.9507124391617192
670085,Moreton 66/11kv,Primary Substation,420581.0,232923.0,51.994335,-1.701678,420579.960544092,232918.32083436457,51.994377025883395,-1.7016625699679475
890094,Danesmoor 33 11kv S Stn,Primary Substation,440586.0,363100.0,53.163458,-1.39441,440586.00312796974,363097.32297415665,53.1634820592142,-1.3944096954874388
900011,Fernwood 33 11kv S Stn,Primary Substation,482080.0,350145.0,53.042251,-0.777191,482080.9931911713,350141.119306563,53.04228602483665,-0.7772048102090364
840020,Roushill 33/11kv,Primary Substation,349191.0,312701.0,52.709543,-2.75351,349188.96242962626,312697.4774234118,52.70957485194854,-2.7534803780156705
770004,Star Aluminium 33/11kv,Primary Substation,372692.0,292029.0,52.525413,-2.403947,372690.94425076206,292025.51579722884,52.52544437118812,-2.4039317150992483
670086,Bishops Cleeve 66/11kv,Primary Substation,394679.0,227653.0,51.947296,-2.078839,394677.9549515758,227647.39419724193,51.947346406414965,-2.078823872497258
750004,Cleobury Mortimer 33/11kv,Primary Substation,367050.0,275491.0,52.376419,-2.485479,367047.9756830163,275486.4635603704,52.37645989995781,-2.4854497003413085
939424,Wellesbourne,Primary Substation,427208.0,255538.0,52.197368,-1.60335,427207.97678603703,255533.37015673594,52.19740961790342,-1.6033492779712037
910026,Holbeach 33 11kv S Stn,Primary Substation,536870.0,326304.0,52.816871,0.029536,536872.0292649518,326299.9986296049,52.81690745856062,0.02950759754204639
850021,Cauldon Cement 33kv,Primary Substation,408382.0,349635.0,53.043896,-1.876444,408380.97395330126,349632.40983008547,53.043919264049926,-1.8764286171865956
111935,Almondsbury,Primary Substation,360622.0,183622.0,51.550046,-2.569333,360619.96974882646,183615.50959583157,51.55010449237812,-2.5693044387194934
520233,Strand Swansea,Primary Substation,265799.0,193333.0,51.62272,-3.940071,265794.9300984987,193327.71280991356,51.622768478067336,-3.9400142608211524
520211,Ravenhill,Primary Substation,263660.0,195984.0,51.646027,-3.971984,263655.92393080547,195978.69612270332,51.646075644722345,-3.9719271843027433
560055,Aberpergwm,Primary Substation,286902.0,205812.0,51.739516,-3.639418,286897.9818674309,205806.6805005276,51.739564615782726,-3.639361552633691
560053,Abercrave,Primary Substation,283510.0,212052.0,51.7949,-3.690615,283505.98034909356,212046.64975095016,51.794948916766835,-3.690558528839067
590246,Tregaron,Primary Substation,267771.0,259139.0,52.214512,-3.936894,267766.9590677754,259134.71789956844,52.21455144214753,-3.9368365537304384
590206,Pont Ar Annell,Primary Substation,266165.0,238647.0,52.029989,-3.95232,266160.9253067606,238641.71718622802,52.03003744813769,-3.9522627001026263
520284,Jersey Marine,Primary Substation,270512.0,193384.0,51.624284,-3.872047,270507.97043823823,193378.77971943154,51.62433183534514,-3.871990743155947
590151,Llandeilo,Primary Substation,263330.0,223999.0,51.897689,-3.987784,263325.95728288614,223994.69402203785,51.897728679021235,-3.9877269804133118
590156,Llanfihangel Ystrad,Primary Substation,252479.0,255336.0,52.176462,-4.158901,252474.92557949352,255331.80803417222,52.17650074684739,-4.158843273193283
520187,New Lodge,Primary Substation,246085.0,201170.0,51.688082,-4.228087,246080.93510718184,201164.7747581874,51.6881300560579,-4.228030538475412
930053,Campion Hills 33 11kv S Stn,Primary Substation,433106.99541859503,266592.27016381815,52.296466,-1.515967,433106.99541859503,266592.27016381815,52.29646599602266,-1.515966987761275
520286,Kidwelly,Primary Substation,242085.0,207517.0,51.743992,-4.288783,242080.92602643234,207511.8048084986,51.744039817512856,-4.2887263909195505
580296,Cwmffrwd,Primary Substation,241728.0,217612.0,51.834583,-4.298557,241723.97197386075,217606.851210165,51.834630392984515,-4.298500935891297
580228,St Clears,Primary Substation,227906.0,219196.0,51.8447,-4.4998,227898.74915184727,219188.58658167924,51.844768821779574,-4.499698528450699
520248,Tumble,Primary Substation,253950.0,212279.0,51.789998,-4.119059,253945.95968444538,212273.7431161102,51.79004628353894,-4.119002666428267
890017,Daneshill Generation 33kv S/Stn,Primary Substation,467576.0,386855.0,53.374216,-0.985721,467577.01617921947,386852.182193015,53.37424145081255,-0.985735656858377
930097,Nailstone 33 11kv S Stn,Primary Substation,443257.0126463773,308924.2968659868,52.676302,-1.361661,443257.0126463773,308924.2968659868,52.67630199633942,-1.3616609874827135
530071,Blaenavon,Primary Substation,324358.0,208531.0,51.770273,-3.097668,324354.9652540098,208525.56226915756,51.77032228819993,-3.0976252035139415
510218,Sanatorium,Primary Substation,315996.0,176240.0,51.478799,-3.211069,315992.9344314857,176233.6601217867,51.47885644348518,-3.211026366339529
510104,Court Road Barry,Primary Substation,312365.0,168732.0,51.410755,-3.261479,312361.96000825014,168725.63458315504,51.410812687156145,-3.2614368657611115
510119,Ely,Primary Substation,315153.0,176785.0,51.483572,-3.223336,315149.9417951417,176778.63209600328,51.48362969865898,-3.2232934902508186
540263,Ynysfeio,Primary Substation,294611.0,197890.0,51.669809,-3.525404,294607.9411566608,197883.68517616647,51.66986632763139,-3.5253616813283717
550183,Nelson,Primary Substation,310552.0,194926.0,51.645942,-3.294201,310548.9766715959,194920.64290634834,51.64599063165756,-3.2941586776191016
540128,Gas Yard,Primary Substation,307376.0,190318.0,51.604007,-3.338869,307372.9897314437,190312.6746355248,51.60405536007484,-3.3388269440225846
779986,Bishampton Solar,Primary Substation,399945.0,251423.0,52.161,-2.0022,399946.40133787284,251414.12858990603,52.16107975342502,-2.002220478149325
540255,Wattstown,Primary Substation,302265.0,193731.0,51.633811,-3.413598,302261.9772098821,193724.67141808546,51.63386840584148,-3.413556096660498
560105,Cowbridge,Primary Substation,299656.0,174847.0,51.463612,-3.44589,299652.95229569334,174840.6623476281,51.463669503266644,-3.4458479334485497
540174,Middle Fan,Primary Substation,299412.0,197632.0,51.668371,-3.45593,299408.95765843993,197625.67468518496,51.6684283946133,-3.4558878359215575
560075,Boverton,Primary Substation,298358.0,168556.0,51.406833,-3.46276,298354.9827343135,168549.6985394871,51.40689017845242,-3.4627184325451457
560079,Bridgend Trading Estate,Primary Substation,291408.0,179480.0,51.50373,-3.566015,291403.9551706043,179473.6911469347,51.50378747795018,-3.5659586803611845
530177,Monmouth,Primary Substation,349796.0,212121.0,51.805404,-2.729561,349793.95323548524,212114.5588644239,51.805462087344374,-2.7295322414301872
610107,Crickhowell,Primary Substation,322411.0,219348.0,51.867252,-3.128306,322407.9504038743,219343.6045535301,51.86729193179275,-3.12826269665566
610133,Glasbury,Primary Substation,317916.0,238065.0,52.034842,-3.19805,317912.9591935513,238059.5674684657,52.03489127781041,-3.1980069771472786
580272,Cardigan,Primary Substation,218395.0,246155.0,52.083839,-4.651949,218389.91678197458,246150.8195188602,52.08387820879364,-4.651877115189897
510069,Birchgrove,Primary Substation,316903.0,181519.0,51.526388,-3.199257,316899.9299374586,181512.58547009766,51.526446110896416,-3.1992142608231116
580078,Bridell,Primary Substation,217730.0,242446.0,52.050311,-4.659662,217724.91527095312,242441.90480786405,52.05034944736204,-4.659590107404321
600017,Haverfordwest Power Stn,Primary Substation,195743.0,215709.0,51.80257,-4.964001,195737.92645835914,215703.93577796518,51.80261732091004,-4.9639304950489604
250290,East Chinnock Primary,Primary Substation,349095.0,113192.0,50.915866,-2.725545,349091.9601257202,113184.51770796746,50.9159335417956,-2.72550279673173
250280,Axminster,Primary Substation,329963.0,98361.0,50.780502,-2.994821,329959.9572136701,98352.61463453862,50.78057775759722,-2.9947794373327565
210560,Holford,Primary Substation,316435.0,141785.0,51.169122,-3.196658,316431.9557097438,141778.66104290396,51.169179427828155,-3.1966159321431404
210210,Bowhays Cross,Primary Substation,306424.0,140833.0,51.159011,-3.339558,306420.96146958834,140826.59308862078,51.15906908780355,-3.339516219710878
210200,Wellington Primary,Primary Substation,312551.0,122119.0,50.991734,-3.247432,312547.93727489625,122111.57614582547,50.99180120224939,-3.247390151049495
210150,Watchfield,Primary Substation,335004.0,147106.0,51.219377,-2.932073,335000.9370099971,147099.61306560587,51.21943476754141,-2.9320302977967603
250300,Martock,Primary Substation,345818.0,119051.0,50.968257,-2.77303,345814.9567464133,119044.49703971413,50.96831575298186,-2.7729876248041623
210130,Nether Stowey,Primary Substation,321391.0,139409.0,51.148464,-3.125267,321387.97399442515,139402.56569298144,51.14852225747689,-3.125225143645945
210060,Bridgwater Local,Primary Substation,329596.0,137202.0,51.129692,-3.007552,329592.9429669077,137195.6190003954,51.129749740792015,-3.007509557698561
210030,Creech St Michael,Primary Substation,328138.0,124571.0,51.015949,-3.025869,328134.9912338547,124564.57747545553,51.01600711503266,-3.0258273787131214
182150,Royal Portbury Dock,Primary Substation,349904.0,177126.0,51.49079,-2.72297,349902.0058860261,177119.48131003184,51.4908487804434,-2.722942196771528
181425,East Brent,Primary Substation,335276.0,153553.0,51.27737,-2.929346,335272.9967882508,153546.5229279547,51.27742856990821,-2.9293041147993266
181414,Easton-In-Gordano,Primary Substation,352041.0,174942.0,51.47134,-2.691896,352038.95236136107,174935.5080906839,51.47139853712935,-2.691867394133669
181345,Cheddar,Primary Substation,345494.0,153151.0,51.274827,-2.782796,345491.95446769835,153144.51405562274,51.27488550623089,-2.782767659091946
210120,Colley Lane,Primary Substation,330916.0,136056.0,51.11954,-2.988471,330912.94075022225,136048.54302063733,51.1196074081306,-2.9884287177574747
250310,Colyford,Primary Substation,325565.0,92764.0,50.729639,-3.056058,325561.98778456775,92756.60294351945,50.72970588921298,-3.05601681359205
250330,Waterlake Primary,Primary Substation,333183.0,105786.0,50.847643,-2.950509,333179.99950844713,105777.61892483421,50.847718698239184,-2.950467907100297
250340,Bridport,Primary Substation,346380.0,93374.0,50.737413,-2.761258,346376.9525730866,93365.52894638205,50.73748944719553,-2.761216043413785
600232,Steynton,Primary Substation,191620.0,207675.0,51.728924,-5.018892,191614.94102076752,207670.96989263856,51.72896206121395,-5.018821256910323
182736,Bristol International Airport,Primary Substation,350928.0,164823.0,51.380266,-2.706514,350925.94282885065,164816.56455202878,51.38032403442235,-2.706485323762443
113983,Cribbs Causeway,Primary Substation,358834.0,181279.0,51.528852,-2.594843,358831.98834639974,181272.47773504176,51.52891078372893,-2.5948147563428554
169999,Meb Source Dummy,Primary Substation,375000.0,164000.0,51.3744,-2.3606,374996.9030298628,163988.9352087729,51.374499621122304,-2.3605562784343475
113884,Abbeywood Primary,Primary Substation,361152.0,178647.0,51.505353,-2.561139,361149.9937454192,178640.54456532007,51.50541117467542,-2.5611107975755187
930032,Coventry South 11kv S Stn,Primary Substation,431458.0,278744.0,52.405763,-1.539012,431457.9794676006,278739.3317644755,52.405804961350974,-1.5390112487150345
910055,Oakham 11kv S Stn,Primary Substation,487374.0,308612.0,52.668153,-0.70937,487375.0206669463,308608.12860146235,52.66818795437078,-0.7093840511201007
870033,Ravensdale Park 33 11kv S Stn,Primary Substation,426962.0,344878.0,53.000525,-1.599699,426961.993475726,344875.3269105027,53.00054902455163,-1.599698668153216
670164,Croome Airfield Pv,Primary Substation,389609.0,242881.0,52.0841,-2.1531,389605.86645203474,242871.75388678175,52.08418318281645,-2.1530545439426114
927001,Hayfield 33/11kv,Primary Substation,490211.0,276879.0,52.3825,-0.676,490214.20691444346,276876.3397140703,52.382524433496876,-0.6760463743637468
250620,Beaminster,Primary Substation,346497.0,101673.0,50.812047,-2.76081,346493.97152048483,101664.56117464576,50.81212315486816,-2.760768241350027
250530,Coker,Primary Substation,353354.0,112968.0,50.914213,-2.664922,353351.94424858753,112960.5413824154,50.91428022760837,-2.6648937049584327
250400,Montacute,Primary Substation,351147.0,117525.0,50.954996,-2.696939,351144.0010303951,117516.54994668439,50.955072229624264,-2.6968974328005753
250370,Crewkerne,Primary Substation,344881.0,109469.0,50.882003,-2.784921,344877.94214158435,109461.57500355574,50.88207004963145,-2.784878648694271
250360,Chard,Primary Substation,332693.0,108591.0,50.872815,-2.957986,332689.9374986015,108583.57652751647,50.87288209788172,-2.9579438399540496
600200,Penblewin,Primary Substation,211904.0,217474.0,51.824102,-4.730865,211898.7290269447,217469.89378525387,51.82414064765466,-4.730790830518819
510108,Crwys Road,Primary Substation,318113.0,178216.0,51.496873,-3.18105,318109.99389902526,178209.63019558508,51.49693069315832,-3.1810081753290187
540094,Caerphilly,Primary Substation,315822.0,187265.0,51.577881,-3.216212,315818.97704196454,187258.63859553676,51.57793863218161,-3.2161699022080477
890038,Worksop West 33 11kv S Stn,Primary Substation,457508.0,380108.0,53.314775,-1.138255,457508.99114916014,380106.1900263386,53.31479137174402,-1.1382695347333212
560256,Wern,Primary Substation,273638.0,194382.0,51.633963,-3.827274,273633.97449917655,194376.67369885714,51.634011766256265,-3.8272177806964787
520251,Upper Bank,Primary Substation,266725.0,195333.0,51.640913,-3.927464,266720.96505048755,195327.75953081774,51.64096104408881,-3.9274077119931876
520127,Garngoch,Primary Substation,260522.0,197957.0,51.662986,-4.018095,260517.9468732912,197951.75363048835,51.66303414416861,-4.018038522161465
910025,Dowsby Fen 33 11kv S Stn,Primary Substation,516181.0,329321.0,52.848831,-0.276221,516182.9776632221,329317.0793707945,52.84886665075254,-0.2762489434647083
520197,Pantyffynon,Primary Substation,262231.0,210892.0,51.779637,-3.998522,262226.94859330077,210886.70779813285,51.779685547122654,-3.998465402001699
840006,Leebotwood 33/11kv,Primary Substation,348167.0,298126.0,52.578433,-2.766371,348164.9482086975,298122.53557190945,52.578464334040056,-2.7663412559430105
560025,Cefn Gwrgan,Primary Substation,278279.0,186764.0,51.566515,-3.757604,278274.9672933548,186757.69395956903,51.566572539880006,-3.757548022450654
520259,Westfa,Primary Substation,253010.0,202350.0,51.700541,-4.128479,253005.9683335659,202344.7504418458,51.700589219209704,-4.1284229070253
580276,Newcastle Emlyn South,Primary Substation,230547.0,240374.0,52.035768,-4.47191,230541.92326726674,240369.80416635657,52.03580723607542,-4.471838131553404
580201,Pendine,Primary Substation,226211.0,208440.0,51.747582,-4.518957,226205.95870312987,208434.82687329117,51.74763002712234,-4.518886624908284
580262,Whitland,Primary Substation,221164.0,217833.0,51.830368,-4.596832,221158.95248496925,217828.8291881783,51.8304070733464,-4.596760975254735
600085,Broadfield,Primary Substation,213184.0,203773.0,51.701474,-4.704941,213178.9308365896,203767.89321363246,51.70152154840002,-4.704870457924367
600229,St Florence,Primary Substation,207771.154,201610.516,51.6802,-4.782,207764.72542776016,201602.67459937918,51.68027261701523,-4.781911440694165
600188,Neyland,Primary Substation,195308.0,206237.0,51.717362,-4.96472,195302.95326637474,206231.94930097606,51.717409188561575,-4.964650004510307
520172,Meinciau,Primary Substation,245375.0,210288.0,51.769805,-4.242402,245370.93686421667,210282.77473580244,51.76985306313664,-4.242345480042027
560191,Nottage,Primary Substation,281934.0,178293.0,51.491169,-3.702054,281929.98302801163,178287.6676371853,51.491217759593205,-3.701997942431888
610092,Builth Wells,Primary Substation,306264.0,251704.0,52.15558,-3.371616,306260.93213491025,251698.62670665886,52.15562881187581,-3.371572644249218
530056,Abersychan,Primary Substation,326438.0,203077.0,51.721522,-3.066374,326434.99724126316,203071.58764137968,51.72157104481495,-3.066331672165807
340012,Mortonhampstead,Primary Substation,275303.0,85761.0,50.658061,-3.765568,275298.92920701404,85752.68904815364,50.65813657000677,-3.7655132295051263
560093,Caerau Primary,Primary Substation,286260.0,195108.0,51.643175,-3.645219,286255.9490910235,195101.64838039584,51.64323290100166,-3.64516253871676
114260,Broadweir Primary,Primary Substation,359584.0,173560.0,51.459505,-2.583146,359581.9544930927,173553.50386178808,51.459563548982715,-2.583117293155102
114258,Astra Zeneca,Primary Substation,354359.0,183341.0,51.547046,-2.659615,354357.00296288676,183334.46361035015,51.54710492468962,-2.659587041539053
930025,Coventry West 6 6kv S Stn,Primary Substation,426954.0,278294.0,52.401957,-1.605252,426954.0054653659,278289.33077344776,52.40199897209205,-1.6052516937161794
182000,Frys Hill Radio Station,Primary Substation,343558.037,155696.008,51.2975,-2.811,343552.4483008597,155687.33633813282,51.29757851626576,-2.8109212142632067
520317,Swansea Waterfront,Primary Substation,267211.0,193159.0,51.621483,-3.919619,267206.9868067991,193152.75310487696,51.621540079132,-3.9195634229793765
437470,Dairy Crest Davidstow,Primary Substation,213848.0,86756.0,50.650603,-4.634698,213842.93198257568,86748.86212988451,50.65066873621065,-4.634629969463982
600076,Brawdy,Primary Substation,187008.0,225514.0,51.887338,-5.096538,187002.91193025236,225508.95974327298,51.88738519018735,-5.096467283236639
920036,Highfields 33 11kv S Stn,Primary Substation,459565.0,303885.0,52.629428,-1.1214,459564.99716051033,303881.2195382478,52.629461977313355,-1.1213992649923286
210470,Burnham,Primary Substation,331132.0,149270.0,51.238377,-2.987922,331128.9624083733,149263.52566733857,51.238435570137895,-2.9878797313878374
540240,Tonypandy,Primary Substation,299419.0,193207.0,51.628599,-3.454555,299415.95104746404,193200.68708971766,51.62865628387836,-3.4545127710190804
550061,Abertysswg,Primary Substation,312717.0,205721.0,51.743318,-3.265624,312713.97486311704,205715.57284295966,51.7433672515432,-3.2655815490521207
900040,Lincoln No 5 11kv S Stn,Primary Substation,499040.0,371264.0,53.229167,-0.517795,499040.9786402935,371261.1591183486,53.229192706632325,-0.5178087601027208
510223,Ship Hill Barry,Primary Substation,310639.0,167037.0,51.395248,-3.285862,310635.9494718623,167030.5989362761,51.395306017845684,-3.2858197681026717
600279,Milford Haven,Primary Substation,190027.0,206161.0,51.7147,-5.041,190022.55619444422,206152.920113608,51.71477420437425,-5.040940630494471
540306,Maerdy,Primary Substation,297219.0,199123.0,51.681375,-3.488068,297215.9816457484,199116.67333210347,51.6814324135749,-3.488026212299354
600173,Merlins Bridge,Primary Substation,194813.0,214554.0,51.791859,-4.976786,194807.9555327861,214548.95345155604,51.7919061588185,-4.976715935555056
550111,Cwmfelinfach,Primary Substation,318329.0,191683.0,51.617974,-3.181072,318325.987418488,191677.58162731893,51.61802314097162,-3.1810297509398735
510148,Ironbridge,Primary Substation,313237.0,181719.0,51.527634,-3.252137,313233.95729182,181712.61433734087,51.527691865990214,-3.2520947144835413
550287,Swansea Road Merthyr,Primary Substation,303520.0,206888.0,51.752289,-3.399114,303516.94086418283,206881.62257694482,51.75234684586605,-3.399071458720906
560265,Ynys Street,Primary Substation,277148.0,190211.0,51.597248,-3.775121,277143.92991949513,190204.72070932365,51.59730531588051,-3.775064459284955
540234,Trethomas,Primary Substation,319086.0,189187.0,51.595637,-3.169564,319082.95218750916,189180.59295415925,51.595695029630555,-3.1695214786233836
520217,Lime Street Gorseinon,Primary Substation,259173.0,198622.0,51.668616,-4.037854,259168.95139670986,198615.78754072328,51.66867283315623,-4.03779799162809
550179,Mountain Ash,Primary Substation,305108.0,198711.0,51.67907,-3.373887,305104.9384001736,198705.5899143595,51.67911914251898,-3.3738441944143713
510160,Llanishen,Primary Substation,316522.0,182164.0,51.532139,-3.204901,316518.93276297284,182158.59683071723,51.53218802092214,-3.204858063418901
899100,33kv Highgrounds Generation,Primary Substation,456895.0,379492.0,53.3093,-1.1476,456893.68143945525,379489.6439407206,53.309321031087,-1.147579778784513
550208,Pontllanffraith,Primary Substation,317996.0,196584.0,51.661973,-3.187031,317992.9549337159,196577.56332865672,51.66203130152883,-3.186988486994293
